{
"type": "FeatureCollection",
"name": "annual",
"crs": { "type": "name", "properties": { "name": "urn:ogc:def:crs:OGC:1.3:CRS84" } },
"features": [
{ "type": "Feature", "properties": { "station_na": "abergeldie", "longitude": 80.58, "latitude": 6.9, "Jan": 58.47619048, "Feb": 79.04761905, "March": 123.1904762, "April": 209.1428571, "May": 384.7142857, "June": 467.2380952, "July": 438.6190476, "August": 382.7619048, "Sep": 301.4761905, "Oct": 399.4761905, "Nov": 245.9047619, "Dec": 123.4285714, "sum": 3213.47619 }, "geometry": { "type": "Point", "coordinates": [ 80.580000017257689, 6.900000005498161 ] } },
{ "type": "Feature", "properties": { "station_na": "allai tank", "longitude": 81.32, "latitude": 8.4, "Jan": 148.8095238, "Feb": 113.5238095, "March": 52.38095238, "April": 34.19047619, "May": 45.0, "June": 14.76190476, "July": 32.71428571, "August": 53.66666667, "Sep": 67.04761905, "Oct": 176.5714286, "Nov": 286.5714286, "Dec": 340.8571429, "sum": 1366.095238 }, "geometry": { "type": "Point", "coordinates": [ 81.320000015568112, 8.400000003891895 ] } },
{ "type": "Feature", "properties": { "station_na": "alut oya", "longitude": 80.9, "latitude": 8.22, "Jan": 165.7142857, "Feb": 109.1904762, "March": 56.38095238, "April": 83.57142857, "May": 76.85714286, "June": 8.761904762, "July": 25.04761905, "August": 54.57142857, "Sep": 59.38095238, "Oct": 226.9047619, "Nov": 292.3333333, "Dec": 338.8095238, "sum": 1497.523809 }, "geometry": { "type": "Point", "coordinates": [ 80.900000016470841, 8.220000004123646 ] } },
{ "type": "Feature", "properties": { "station_na": "aluthnuwara", "longitude": 81.0, "latitude": 7.32, "Jan": 333.1428571, "Feb": 169.3809524, "March": 105.6666667, "April": 138.8571429, "May": 88.52380952, "June": 21.28571429, "July": 29.14285714, "August": 56.47619048, "Sep": 85.66666667, "Oct": 274.0952381, "Nov": 459.6190476, "Dec": 415.0, "sum": 2176.857143 }, "geometry": { "type": "Point", "coordinates": [ 81.000000016311034, 7.320000005009817 ] } },
{ "type": "Feature", "properties": { "station_na": "ambewela", "longitude": 80.8, "latitude": 6.88, "Jan": 125.6190476, "Feb": 98.57142857, "March": 111.047619, "April": 172.8095238, "May": 184.2857143, "June": 174.0952381, "July": 152.5238095, "August": 146.0952381, "Sep": 157.8571429, "Oct": 263.7142857, "Nov": 269.2380952, "Dec": 219.7619048, "sum": 2075.619048 }, "geometry": { "type": "Point", "coordinates": [ 80.800000016778199, 6.880000005483743 ] } },
{ "type": "Feature", "properties": { "station_na": "angamedilla", "longitude": 80.92, "latitude": 7.85, "Jan": 213.3333333, "Feb": 146.2380952, "March": 91.0, "April": 111.0, "May": 98.0, "June": 6.238095238, "July": 27.23809524, "August": 34.0, "Sep": 76.47619048, "Oct": 250.8095238, "Nov": 340.952381, "Dec": 436.3333333, "sum": 1831.619048 }, "geometry": { "type": "Point", "coordinates": [ 80.920000016448043, 7.850000004490161 ] } },
{ "type": "Feature", "properties": { "station_na": "annfield", "longitude": 80.633, "latitude": 6.867, "Jan": 78.33333333, "Feb": 87.14285714, "March": 156.3333333, "April": 265.1428571, "May": 274.2380952, "June": 302.5714286, "July": 261.8095238, "August": 267.4761905, "Sep": 223.3333333, "Oct": 290.7142857, "Nov": 259.1904762, "Dec": 168.8571429, "sum": 2635.142857 }, "geometry": { "type": "Point", "coordinates": [ 80.633000017144141, 6.867000005523265 ] } },
{ "type": "Feature", "properties": { "station_na": "aralaganwila", "longitude": 81.15, "latitude": 7.8, "Jan": 232.1904762, "Feb": 137.7619048, "March": 70.14285714, "April": 115.1904762, "May": 99.66666667, "June": 12.85714286, "July": 39.14285714, "August": 62.47619048, "Sep": 57.33333333, "Oct": 258.8095238, "Nov": 338.952381, "Dec": 405.6190476, "sum": 1830.142857 }, "geometry": { "type": "Point", "coordinates": [ 81.150000015958668, 7.8000000045088 ] } },
{ "type": "Feature", "properties": { "station_na": "badulla", "longitude": 81.05, "latitude": 6.98, "Jan": 184.047619, "Feb": 112.5714286, "March": 103.6666667, "April": 194.1904762, "May": 121.7619048, "June": 52.61904762, "July": 52.23809524, "August": 73.38095238, "Sep": 100.0952381, "Oct": 255.8571429, "Nov": 287.6190476, "Dec": 279.4761905, "sum": 1817.52381 }, "geometry": { "type": "Point", "coordinates": [ 81.050000016229845, 6.980000005344475 ] } },
{ "type": "Feature", "properties": { "station_na": "bakamuna", "longitude": 80.82, "latitude": 7.77, "Jan": 222.1428571, "Feb": 177.1904762, "March": 98.76190476, "April": 122.2380952, "May": 83.04761905, "June": 3.523809524, "July": 17.0952381, "August": 44.23809524, "Sep": 73.04761905, "Oct": 249.7142857, "Nov": 376.4761905, "Dec": 437.6666667, "sum": 1905.142857 }, "geometry": { "type": "Point", "coordinates": [ 80.820000016668828, 7.770000004584119 ] } },
{ "type": "Feature", "properties": { "station_na": "bandara eliya estate", "longitude": 81.02, "latitude": 6.78, "Jan": 146.952381, "Feb": 120.9047619, "March": 198.3333333, "April": 356.7142857, "May": 181.6666667, "June": 40.33333333, "July": 58.57142857, "August": 66.85714286, "Sep": 166.0952381, "Oct": 402.4761905, "Nov": 397.0952381, "Dec": 272.3809524, "sum": 2408.380952 }, "geometry": { "type": "Point", "coordinates": [ 81.020000016311045, 6.780000005550936 ] } },
{ "type": "Feature", "properties": { "station_na": "bandarawela irrigation", "longitude": 80.98, "latitude": 6.83, "Jan": 105.6190476, "Feb": 75.85714286, "March": 104.0, "April": 177.2380952, "May": 139.7142857, "June": 40.52380952, "July": 53.0, "August": 52.61904762, "Sep": 115.2380952, "Oct": 274.0, "Nov": 259.3809524, "Dec": 192.8571429, "sum": 1590.047619 }, "geometry": { "type": "Point", "coordinates": [ 80.98000001639285, 6.830000005506507 ] } },
{ "type": "Feature", "properties": { "station_na": "beauvais estate", "longitude": 80.82, "latitude": 6.78, "Jan": 117.3333333, "Feb": 106.8095238, "March": 179.3809524, "April": 298.5238095, "May": 157.7142857, "June": 37.61904762, "July": 43.9047619, "August": 72.14285714, "Sep": 132.8095238, "Oct": 356.952381, "Nov": 345.047619, "Dec": 260.952381, "sum": 2109.190476 }, "geometry": { "type": "Point", "coordinates": [ 80.820000016743435, 6.780000005582012 ] } },
{ "type": "Feature", "properties": { "station_na": "bible agri. training center", "longitude": 81.22, "latitude": 7.15, "Jan": 266.9047619, "Feb": 186.0952381, "March": 139.1904762, "April": 167.952381, "May": 108.0952381, "June": 25.23809524, "July": 46.57142857, "August": 66.66666667, "Sep": 99.23809524000001, "Oct": 264.0, "Nov": 397.7142857, "Dec": 371.1904762, "sum": 2138.857143 }, "geometry": { "type": "Point", "coordinates": [ 81.220000015853572, 7.150000005148629 ] } },
{ "type": "Feature", "properties": { "station_na": "bogahamaditta", "longitude": 80.9, "latitude": 6.97, "Jan": 144.4761905, "Feb": 85.0, "March": 81.19047619, "April": 149.1428571, "May": 116.1428571, "June": 46.52380952, "July": 49.38095238, "August": 72.42857143000001, "Sep": 85.33333333, "Oct": 213.1904762, "Nov": 240.0, "Dec": 230.4761905, "sum": 1513.285714 }, "geometry": { "type": "Point", "coordinates": [ 80.900000016553761, 6.970000005377234 ] } },
{ "type": "Feature", "properties": { "station_na": "bopatthalawa", "longitude": 80.72, "latitude": 6.83, "Jan": 62.0, "Feb": 78.23809524000001, "March": 139.3809524, "April": 233.952381, "May": 197.2380952, "June": 149.5714286, "July": 130.5714286, "August": 135.6666667, "Sep": 137.9047619, "Oct": 227.9047619, "Nov": 217.5238095, "Dec": 117.952381, "sum": 1827.904762 }, "geometry": { "type": "Point", "coordinates": [ 80.720000016956917, 6.830000005547031 ] } },
{ "type": "Feature", "properties": { "station_na": "campion", "longitude": 80.7, "latitude": 6.78, "Jan": 97.71428571, "Feb": 102.3809524, "March": 160.6666667, "April": 269.7142857, "May": 227.1428571, "June": 166.047619, "July": 152.8095238, "August": 153.8095238, "Sep": 174.0, "Oct": 302.4761905, "Nov": 328.9047619, "Dec": 214.7619048, "sum": 2350.428571 }, "geometry": { "type": "Point", "coordinates": [ 80.700000017005067, 6.780000005601021 ] } },
{ "type": "Feature", "properties": { "station_na": "canarawella group", "longitude": 81.12, "latitude": 6.9, "Jan": 173.3809524, "Feb": 128.5714286, "March": 176.952381, "April": 342.5714286, "May": 222.8571429, "June": 98.28571429, "July": 100.5714286, "August": 109.8571429, "Sep": 185.5714286, "Oct": 431.5714286, "Nov": 443.2380952, "Dec": 329.9047619, "sum": 2743.333334 }, "geometry": { "type": "Point", "coordinates": [ 81.120000016086465, 6.90000000541463 ] } },
{ "type": "Feature", "properties": { "station_na": "canyon", "longitude": 80.53, "latitude": 6.88, "Jan": 65.85714286, "Feb": 88.28571429, "March": 144.2380952, "April": 249.9047619, "May": 439.2857143, "June": 531.5714286, "July": 496.7619048, "August": 432.0952381, "Sep": 364.9047619, "Oct": 419.1904762, "Nov": 263.7142857, "Dec": 145.3333333, "sum": 3641.142857 }, "geometry": { "type": "Point", "coordinates": [ 80.530000017369602, 6.880000005526508 ] } },
{ "type": "Feature", "properties": { "station_na": "crystal_hill", "longitude": 80.65, "latitude": 7.5, "Jan": 145.7142857, "Feb": 88.28571429, "March": 85.0952381, "April": 212.8095238, "May": 126.2857143, "June": 63.80952381, "July": 53.38095238, "August": 73.14285714, "Sep": 129.8571429, "Oct": 272.3809524, "Nov": 301.4285714, "Dec": 253.1904762, "sum": 1805.380952 }, "geometry": { "type": "Point", "coordinates": [ 80.650000017056712, 7.500000004879976 ] } },
{ "type": "Feature", "properties": { "station_na": "dambatenne", "longitude": 81.0, "latitude": 6.78, "Jan": 182.047619, "Feb": 144.952381, "March": 243.6190476, "April": 413.6666667, "May": 226.047619, "June": 53.38095238, "July": 64.04761905, "August": 93.0952381, "Sep": 180.0, "Oct": 495.7619048, "Nov": 516.8095238, "Dec": 337.7142857, "sum": 2951.142857 }, "geometry": { "type": "Point", "coordinates": [ 81.000000016354079, 6.780000005554003 ] } },
{ "type": "Feature", "properties": { "station_na": "debedda estate", "longitude": 81.12, "latitude": 6.95, "Jan": 194.6190476, "Feb": 113.4761905, "March": 122.7142857, "April": 226.047619, "May": 145.6666667, "June": 69.9047619, "July": 77.57142857, "August": 97.19047619, "Sep": 133.2857143, "Oct": 289.5238095, "Nov": 323.7142857, "Dec": 284.3333333, "sum": 2078.047619 }, "geometry": { "type": "Point", "coordinates": [ 81.120000016082358, 6.950000005364255 ] } },
{ "type": "Feature", "properties": { "station_na": "delta estate", "longitude": 80.669, "latitude": 7.119, "Jan": 130.6190476, "Feb": 101.8571429, "March": 133.9047619, "April": 335.4285714, "May": 284.4761905, "June": 228.2380952, "July": 221.4761905, "August": 202.0952381, "Sep": 245.0, "Oct": 406.5238095, "Nov": 347.5238095, "Dec": 282.4761905, "sum": 2919.619048 }, "geometry": { "type": "Point", "coordinates": [ 80.669000017044013, 7.119000005261978 ] } },
{ "type": "Feature", "properties": { "station_na": "delta_estate-east division", "longitude": 80.67, "latitude": 7.12, "Jan": 130.6190476, "Feb": 101.8571429, "March": 139.1904762, "April": 335.4285714, "May": 284.4761905, "June": 228.2380952, "July": 221.4761905, "August": 202.0952381, "Sep": 245.0, "Oct": 408.7619048, "Nov": 347.5238095, "Dec": 282.4761905, "sum": 2927.142857 }, "geometry": { "type": "Point", "coordinates": [ 80.670000017041744, 7.12000000526082 ] } },
{ "type": "Feature", "properties": { "station_na": "dick_oya", "longitude": 80.58, "latitude": 6.88, "Jan": 85.19047619, "Feb": 97.33333333, "March": 162.1904762, "April": 304.7142857, "May": 316.952381, "June": 395.3333333, "July": 372.6190476, "August": 363.2857143, "Sep": 276.5238095, "Oct": 328.7619048, "Nov": 290.3333333, "Dec": 162.1428571, "sum": 3155.380952 }, "geometry": { "type": "Point", "coordinates": [ 80.580000017259437, 6.88000000551849 ] } },
{ "type": "Feature", "properties": { "station_na": "diyanillakelle_est", "longitude": 80.669, "latitude": 6.904, "Jan": 109.0952381, "Feb": 99.42857143000001, "March": 148.2380952, "April": 226.047619, "May": 259.3809524, "June": 297.047619, "July": 296.6190476, "August": 227.047619, "Sep": 205.6666667, "Oct": 238.1428571, "Nov": 197.6666667, "Dec": 125.7142857, "sum": 2430.095238 }, "geometry": { "type": "Point", "coordinates": [ 80.669000017061975, 6.904000005479955 ] } },
{ "type": "Feature", "properties": { "station_na": "diyasenpura", "longitude": 81.02, "latitude": 8.12, "Jan": 173.952381, "Feb": 115.7142857, "March": 61.52380952, "April": 74.38095238, "May": 69.71428571, "June": 8.80952381, "July": 21.66666667, "August": 69.47619048, "Sep": 92.95238095000001, "Oct": 271.2380952, "Nov": 318.2857143, "Dec": 429.3333333, "sum": 1707.047619 }, "geometry": { "type": "Point", "coordinates": [ 81.020000016218304, 8.120000004207453 ] } },
{ "type": "Feature", "properties": { "station_na": "diyatalawa-survey-camp", "longitude": 80.9667, "latitude": 6.8167, "Jan": 101.8571429, "Feb": 79.76190476, "March": 109.047619, "April": 200.6666667, "May": 154.1428571, "June": 40.28571429, "July": 54.33333333, "August": 59.80952381, "Sep": 126.3333333, "Oct": 293.7142857, "Nov": 258.5238095, "Dec": 194.952381, "sum": 1673.428571 }, "geometry": { "type": "Point", "coordinates": [ 80.966700016422664, 6.816700005522012 ] } },
{ "type": "Feature", "properties": { "station_na": "duckwari estate", "longitude": 80.78, "latitude": 7.35, "Jan": 162.3809524, "Feb": 82.80952381, "March": 100.952381, "April": 161.4761905, "May": 129.3809524, "June": 110.2380952, "July": 103.1904762, "August": 115.2380952, "Sep": 135.8095238, "Oct": 274.1904762, "Nov": 283.3809524, "Dec": 262.7142857, "sum": 1921.761905 }, "geometry": { "type": "Point", "coordinates": [ 80.780000016784172, 7.350000005011888 ] } },
{ "type": "Feature", "properties": { "station_na": "duckwari estate", "longitude": 80.78, "latitude": 7.35, "Jan": 162.3809524, "Feb": 87.71428571, "March": 100.952381, "April": 163.3333333, "May": 126.5714286, "June": 110.2380952, "July": 103.1904762, "August": 115.2380952, "Sep": 135.8095238, "Oct": 269.952381, "Nov": 283.3809524, "Dec": 268.1428571, "sum": 1926.904762 }, "geometry": { "type": "Point", "coordinates": [ 80.780000016784172, 7.350000005011888 ] } },
{ "type": "Feature", "properties": { "station_na": "dyrabba estate", "longitude": 80.93, "latitude": 6.88, "Jan": 115.0, "Feb": 84.76190476, "March": 86.85714286, "April": 162.3809524, "May": 127.2380952, "June": 43.47619048, "July": 40.47619048, "August": 51.38095238, "Sep": 102.9047619, "Oct": 243.6666667, "Nov": 219.2857143, "Dec": 189.5238095, "sum": 1466.952381 }, "geometry": { "type": "Point", "coordinates": [ 80.930000016496464, 6.880000005463635 ] } },
{ "type": "Feature", "properties": { "station_na": "edingburg_est", "longitude": 80.746, "latitude": 6.931, "Jan": 89.33333333, "Feb": 84.19047619, "March": 113.4285714, "April": 201.952381, "May": 244.1428571, "June": 306.3809524, "July": 298.6190476, "August": 259.2857143, "Sep": 244.5714286, "Oct": 270.3333333, "Nov": 209.6190476, "Dec": 138.3333333, "sum": 2460.190476 }, "geometry": { "type": "Point", "coordinates": [ 80.746000016891429, 6.931000005440476 ] } },
{ "type": "Feature", "properties": { "station_na": "elahera", "longitude": 80.82, "latitude": 7.68, "Jan": 246.047619, "Feb": 145.4761905, "March": 100.5714286, "April": 137.4285714, "May": 92.28571429, "June": 11.14285714, "July": 19.23809524, "August": 43.71428571, "Sep": 65.23809524000001, "Oct": 235.7142857, "Nov": 399.6190476, "Dec": 411.6666667, "sum": 1908.142857 }, "geometry": { "type": "Point", "coordinates": [ 80.820000016674555, 7.68000000467435 ] } },
{ "type": "Feature", "properties": { "station_na": "elkaduwa", "longitude": 80.68, "latitude": 7.42, "Jan": 171.1904762, "Feb": 110.0, "March": 103.4285714, "April": 228.4285714, "May": 199.7619048, "June": 147.1428571, "July": 124.4761905, "August": 132.5714286, "Sep": 171.3333333, "Oct": 339.3809524, "Nov": 338.3333333, "Dec": 312.8571429, "sum": 2378.904762 }, "geometry": { "type": "Point", "coordinates": [ 80.680000016996871, 7.420000004956183 ] } },
{ "type": "Feature", "properties": { "station_na": "elkaduwa estate", "longitude": 80.683, "latitude": 7.417, "Jan": 165.3333333, "Feb": 102.7619048, "March": 106.1428571, "April": 229.1904762, "May": 203.1428571, "June": 150.7142857, "July": 123.047619, "August": 133.6190476, "Sep": 180.4285714, "Oct": 345.952381, "Nov": 338.8095238, "Dec": 310.1428571, "sum": 2389.285714 }, "geometry": { "type": "Point", "coordinates": [ 80.683000016990562, 7.417000004958761 ] } },
{ "type": "Feature", "properties": { "station_na": "ettampitiya", "longitude": 80.9864, "latitude": 6.9364, "Jan": 211.1428571, "Feb": 118.8571429, "March": 174.2380952, "April": 270.7619048, "May": 235.1904762, "June": 82.71428571, "July": 83.95238095000001, "August": 92.28571429, "Sep": 167.5238095, "Oct": 338.1428571, "Nov": 402.047619, "Dec": 323.7619048, "sum": 2500.619048 }, "geometry": { "type": "Point", "coordinates": [ 80.986400016370112, 6.936400005398034 ] } },
{ "type": "Feature", "properties": { "station_na": "gal oya", "longitude": 80.87, "latitude": 8.13, "Jan": 173.6190476, "Feb": 104.3809524, "March": 58.0, "April": 84.71428571, "May": 84.95238095000001, "June": 9.142857143000001, "July": 21.19047619, "August": 54.85714286, "Sep": 71.23809524000001, "Oct": 225.8571429, "Nov": 296.2857143, "Dec": 349.2380952, "sum": 1533.47619 }, "geometry": { "type": "Point", "coordinates": [ 80.870000016540118, 8.130000004217345 ] } },
{ "type": "Feature", "properties": { "station_na": "galoola estate", "longitude": 81.15, "latitude": 7.07, "Jan": 296.6666667, "Feb": 184.952381, "March": 148.4285714, "April": 194.1428571, "May": 146.3333333, "June": 25.66666667, "July": 42.0952381, "August": 82.42857143000001, "Sep": 93.95238095000001, "Oct": 278.0952381, "Nov": 383.2380952, "Dec": 417.3809524, "sum": 2293.380952 }, "geometry": { "type": "Point", "coordinates": [ 81.150000016008747, 7.070000005239089 ] } },
{ "type": "Feature", "properties": { "station_na": "galphele", "longitude": 80.7, "latitude": 7.35, "Jan": 124.7142857, "Feb": 75.04761905, "March": 89.14285714, "April": 168.8095238, "May": 141.6190476, "June": 117.6190476, "July": 122.4285714, "August": 109.6666667, "Sep": 153.4761905, "Oct": 298.3809524, "Nov": 271.3809524, "Dec": 264.952381, "sum": 1937.238095 }, "geometry": { "type": "Point", "coordinates": [ 80.70000001695837, 7.350000005023806 ] } },
{ "type": "Feature", "properties": { "station_na": "galphele", "longitude": 80.7, "latitude": 7.35, "Jan": 124.7142857, "Feb": 75.14285714, "March": 90.23809524000001, "April": 168.8095238, "May": 141.6190476, "June": 118.7619048, "July": 122.4285714, "August": 109.6666667, "Sep": 153.4761905, "Oct": 298.3809524, "Nov": 272.1904762, "Dec": 264.952381, "sum": 1940.380952 }, "geometry": { "type": "Point", "coordinates": [ 80.70000001695837, 7.350000005023806 ] } },
{ "type": "Feature", "properties": { "station_na": "galpurayaya - g/kotte", "longitude": 81.02, "latitude": 7.45, "Jan": 314.9047619, "Feb": 149.8571429, "March": 104.047619, "April": 160.5714286, "May": 68.04761905, "June": 11.52380952, "July": 25.23809524, "August": 54.80952381, "Sep": 84.23809524000001, "Oct": 223.952381, "Nov": 361.5238095, "Dec": 355.2380952, "sum": 1913.952381 }, "geometry": { "type": "Point", "coordinates": [ 81.020000016258876, 7.45000000487651 ] } },
{ "type": "Feature", "properties": { "station_na": "gannoruwa", "longitude": 80.583, "latitude": 7.283, "Jan": 79.85714286, "Feb": 64.0952381, "March": 126.8571429, "April": 251.5714286, "May": 173.5238095, "June": 146.4285714, "July": 122.2380952, "August": 122.1904762, "Sep": 152.5238095, "Oct": 311.1904762, "Nov": 264.0952381, "Dec": 195.952381, "sum": 2010.52381 }, "geometry": { "type": "Point", "coordinates": [ 80.583000017219589, 7.28300000510921 ] } },
{ "type": "Feature", "properties": { "station_na": "gannoruwa", "longitude": 80.583, "latitude": 7.283, "Jan": 79.85714286, "Feb": 64.0952381, "March": 126.8571429, "April": 251.5714286, "May": 173.5238095, "June": 146.4285714, "July": 122.2380952, "August": 122.1904762, "Sep": 152.5238095, "Oct": 311.1904762, "Nov": 264.0952381, "Dec": 195.952381, "sum": 2010.52381 }, "geometry": { "type": "Point", "coordinates": [ 80.583000017219589, 7.28300000510921 ] } },
{ "type": "Feature", "properties": { "station_na": "giddawa", "longitude": 80.73, "latitude": 7.42, "Jan": 152.8571429, "Feb": 79.19047619, "March": 97.76190476, "April": 158.6190476, "May": 129.5714286, "June": 103.7619048, "July": 100.5714286, "August": 99.23809524000001, "Sep": 136.8095238, "Oct": 284.3809524, "Nov": 282.1428571, "Dec": 270.6666667, "sum": 1895.571429 }, "geometry": { "type": "Point", "coordinates": [ 80.730000016887828, 7.420000004948769 ] } },
{ "type": "Feature", "properties": { "station_na": "giradurukotte", "longitude": 81.02, "latitude": 7.46, "Jan": 327.0, "Feb": 145.8095238, "March": 81.14285714, "April": 134.0952381, "May": 63.85714286, "June": 11.61904762, "July": 28.0, "August": 53.76190476, "Sep": 75.71428571, "Oct": 234.1428571, "Nov": 379.8571429, "Dec": 423.1428571, "sum": 1958.142857 }, "geometry": { "type": "Point", "coordinates": [ 81.020000016258194, 7.460000004866488 ] } },
{ "type": "Feature", "properties": { "station_na": "girandurukotte w/s", "longitude": 81.08, "latitude": 7.45, "Jan": 238.5238095, "Feb": 120.4761905, "March": 59.0952381, "April": 113.4285714, "May": 48.52380952, "June": 11.04761905, "July": 20.19047619, "August": 35.04761905, "Sep": 56.0, "Oct": 172.1904762, "Nov": 317.7619048, "Dec": 288.6190476, "sum": 1480.904762 }, "geometry": { "type": "Point", "coordinates": [ 81.080000016130384, 7.450000004867999 ] } },
{ "type": "Feature", "properties": { "station_na": "giritale", "longitude": 80.93, "latitude": 8.0, "Jan": 178.5714286, "Feb": 119.1428571, "March": 69.71428571, "April": 90.80952381, "May": 88.71428571, "June": 7.095238095, "July": 24.23809524, "August": 40.23809524, "Sep": 60.19047619, "Oct": 258.2380952, "Nov": 323.0952381, "Dec": 396.0952381, "sum": 1656.142857 }, "geometry": { "type": "Point", "coordinates": [ 80.930000016417893, 8.000000004339002 ] } },
{ "type": "Feature", "properties": { "station_na": "giritale_wild life", "longitude": 80.93, "latitude": 7.98, "Jan": 186.2380952, "Feb": 133.7619048, "March": 72.04761905, "April": 70.14285714, "May": 77.47619048, "June": 6.619047619, "July": 17.0952381, "August": 33.0952381, "Sep": 75.66666667, "Oct": 231.0952381, "Nov": 314.047619, "Dec": 392.6190476, "sum": 1609.904762 }, "geometry": { "type": "Point", "coordinates": [ 80.930000016418987, 7.980000004358971 ] } },
{ "type": "Feature", "properties": { "station_na": "glen alpin estate", "longitude": 81.08, "latitude": 6.95, "Jan": 194.8571429, "Feb": 122.8095238, "March": 116.9047619, "April": 203.5238095, "May": 157.3333333, "June": 60.47619048, "July": 68.76190476, "August": 94.76190476, "Sep": 117.952381, "Oct": 278.2380952, "Nov": 311.1904762, "Dec": 297.1428571, "sum": 2023.952381 }, "geometry": { "type": "Point", "coordinates": [ 81.080000016167958, 6.950000005370226 ] } },
{ "type": "Feature", "properties": { "station_na": "glenanore", "longitude": 80.92, "latitude": 6.77, "Jan": 114.4761905, "Feb": 111.0952381, "March": 174.6190476, "April": 258.3333333, "May": 149.5238095, "June": 34.28571429, "July": 50.47619048, "August": 77.80952381, "Sep": 131.9047619, "Oct": 362.4285714, "Nov": 380.7619048, "Dec": 238.9047619, "sum": 2084.619048 }, "geometry": { "type": "Point", "coordinates": [ 80.920000016527581, 6.770000005576509 ] } },
{ "type": "Feature", "properties": { "station_na": "gonamotava", "longitude": 80.98, "latitude": 6.78, "Jan": 121.1428571, "Feb": 91.47619048, "March": 129.952381, "April": 228.6190476, "May": 143.3333333, "June": 35.9047619, "July": 49.38095238, "August": 59.80952381, "Sep": 126.7619048, "Oct": 332.5238095, "Nov": 299.7142857, "Dec": 225.7619048, "sum": 1844.380952 }, "geometry": { "type": "Point", "coordinates": [ 80.980000016397156, 6.780000005557085 ] } },
{ "type": "Feature", "properties": { "station_na": "goonapitiya", "longitude": 80.8, "latitude": 7.05, "Jan": 311.8095238, "Feb": 163.8095238, "March": 159.6666667, "April": 216.1428571, "May": 157.1904762, "June": 58.14285714, "July": 75.85714286, "August": 86.33333333, "Sep": 117.1428571, "Oct": 294.1428571, "Nov": 407.047619, "Dec": 440.4285714, "sum": 2487.714286 }, "geometry": { "type": "Point", "coordinates": [ 80.800000016763974, 7.05000000531166 ] } },
{ "type": "Feature", "properties": { "station_na": "habarana lodge", "longitude": 80.75, "latitude": 8.03, "Jan": 152.1428571, "Feb": 94.95238095000001, "March": 72.0952381, "April": 127.1904762, "May": 96.0952381, "June": 6.714285714, "July": 29.80952381, "August": 45.71428571, "Sep": 87.33333333, "Oct": 234.4761905, "Nov": 286.4761905, "Dec": 335.7619048, "sum": 1568.761905 }, "geometry": { "type": "Point", "coordinates": [ 80.750000016805259, 8.030000004333493 ] } },
{ "type": "Feature", "properties": { "station_na": "hakgala", "longitude": 80.817, "latitude": 6.917, "Jan": 154.3809524, "Feb": 98.19047619, "March": 100.3809524, "April": 179.8571429, "May": 165.2857143, "June": 84.71428571, "July": 83.0, "August": 93.71428571, "Sep": 137.6190476, "Oct": 246.5714286, "Nov": 271.3333333, "Dec": 259.4761905, "sum": 1874.52381 }, "geometry": { "type": "Point", "coordinates": [ 80.817000016738092, 6.917000005443619 ] } },
{ "type": "Feature", "properties": { "station_na": "hakgala botanical gdns", "longitude": 80.82, "latitude": 6.92, "Jan": 154.3809524, "Feb": 98.19047619, "March": 100.3809524, "April": 179.8571429, "May": 165.2857143, "June": 84.71428571, "July": 83.0, "August": 93.71428571, "Sep": 137.6190476, "Oct": 246.5714286, "Nov": 271.3333333, "Dec": 259.4761905, "sum": 1874.52381 }, "geometry": { "type": "Point", "coordinates": [ 80.820000016731342, 6.920000005440114 ] } },
{ "type": "Feature", "properties": { "station_na": "handdeessa_daulgala", "longitude": 80.567, "latitude": 7.233, "Jan": 62.71428571, "Feb": 55.76190476, "March": 133.047619, "April": 265.6190476, "May": 196.5238095, "June": 155.5238095, "July": 122.0952381, "August": 129.4285714, "Sep": 174.952381, "Oct": 312.7619048, "Nov": 267.4761905, "Dec": 165.047619, "sum": 2040.952381 }, "geometry": { "type": "Point", "coordinates": [ 80.567000017258607, 7.233000005162277 ] } },
{ "type": "Feature", "properties": { "station_na": "handessa-daulagala", "longitude": 80.57, "latitude": 7.23, "Jan": 62.71428571, "Feb": 55.76190476, "March": 133.047619, "April": 263.8095238, "May": 196.2857143, "June": 155.5238095, "July": 122.0952381, "August": 127.8095238, "Sep": 174.952381, "Oct": 329.047619, "Nov": 269.3333333, "Dec": 165.047619, "sum": 2055.428571 }, "geometry": { "type": "Point", "coordinates": [ 80.570000017252269, 7.230000005164852 ] } },
{ "type": "Feature", "properties": { "station_na": "haputale factory", "longitude": 80.95, "latitude": 6.77, "Jan": 129.8571429, "Feb": 105.8571429, "March": 243.6190476, "April": 331.047619, "May": 197.6666667, "June": 47.66666667, "July": 58.95238095, "August": 73.95238095000001, "Sep": 152.1428571, "Oct": 366.4761905, "Nov": 376.0, "Dec": 255.3809524, "sum": 2338.619048 }, "geometry": { "type": "Point", "coordinates": [ 80.950000016462738, 6.770000005571849 ] } },
{ "type": "Feature", "properties": { "station_na": "hatton_kotagala_rosita", "longitude": 80.6, "latitude": 6.92, "Jan": 120.0, "Feb": 114.8095238, "March": 173.5714286, "April": 248.952381, "May": 298.2380952, "June": 334.6190476, "July": 334.6190476, "August": 261.1904762, "Sep": 235.4285714, "Oct": 257.952381, "Nov": 209.0952381, "Dec": 140.0, "sum": 2728.476191 }, "geometry": { "type": "Point", "coordinates": [ 80.600000017211968, 6.920000005474636 ] } },
{ "type": "Feature", "properties": { "station_na": "helboda_est", "longitude": 80.667, "latitude": 7.083, "Jan": 99.0, "Feb": 69.76190476, "March": 149.7142857, "April": 269.4285714, "May": 292.2380952, "June": 324.1904762, "July": 312.4285714, "August": 254.0, "Sep": 276.047619, "Oct": 402.3333333, "Nov": 361.047619, "Dec": 240.1904762, "sum": 3050.380952 }, "geometry": { "type": "Point", "coordinates": [ 80.667000017051322, 7.083000005298744 ] } },
{ "type": "Feature", "properties": { "station_na": "helboda_north", "longitude": 80.683, "latitude": 7.083, "Jan": 146.3333333, "Feb": 73.04761905, "March": 132.2857143, "April": 331.047619, "May": 370.6666667, "June": 403.3333333, "July": 384.4761905, "August": 345.0952381, "Sep": 371.2857143, "Oct": 459.3333333, "Nov": 371.0952381, "Dec": 318.0, "sum": 3706.0 }, "geometry": { "type": "Point", "coordinates": [ 80.68300001701634, 7.083000005296271 ] } },
{ "type": "Feature", "properties": { "station_na": "helbodde estate", "longitude": 80.67, "latitude": 7.08, "Jan": 99.0, "Feb": 69.76190476, "March": 149.952381, "April": 269.4285714, "May": 292.2380952, "June": 324.1904762, "July": 312.4285714, "August": 255.2857143, "Sep": 276.047619, "Oct": 402.3333333, "Nov": 361.047619, "Dec": 254.1904762, "sum": 3065.904762 }, "geometry": { "type": "Point", "coordinates": [ 80.670000017045012, 7.080000005301316 ] } },
{ "type": "Feature", "properties": { "station_na": "helbodde north", "longitude": 80.68, "latitude": 7.08, "Jan": 146.3333333, "Feb": 73.04761905, "March": 132.2857143, "April": 331.047619, "May": 370.6666667, "June": 403.3333333, "July": 384.4761905, "August": 345.0952381, "Sep": 371.2857143, "Oct": 459.3333333, "Nov": 371.0952381, "Dec": 318.0, "sum": 3706.0 }, "geometry": { "type": "Point", "coordinates": [ 80.680000017023119, 7.080000005299776 ] } },
{ "type": "Feature", "properties": { "station_na": "hembarawa", "longitude": 80.98, "latitude": 7.52, "Jan": 211.7142857, "Feb": 116.3809524, "March": 73.38095238, "April": 82.52380952, "May": 57.04761905, "June": 8.80952381, "July": 16.76190476, "August": 30.42857143, "Sep": 51.95238095, "Oct": 158.2857143, "Nov": 277.4761905, "Dec": 339.1428571, "sum": 1423.904762 }, "geometry": { "type": "Point", "coordinates": [ 80.980000016339972, 7.520000004812042 ] } },
{ "type": "Feature", "properties": { "station_na": "hettipola", "longitude": 80.07, "latitude": 7.58, "Jan": 95.0, "Feb": 49.33333333, "March": 76.52380952, "April": 124.4761905, "May": 89.80952381, "June": 95.42857143000001, "July": 64.80952381, "August": 73.42857143000001, "Sep": 99.0, "Oct": 209.8095238, "Nov": 193.0, "Dec": 194.4761905, "sum": 1365.095238 }, "geometry": { "type": "Point", "coordinates": [ 80.070000018339115, 7.580000004887362 ] } },
{ "type": "Feature", "properties": { "station_na": "high forest estate", "longitude": 80.84, "latitude": 7.06, "Jan": 333.047619, "Feb": 167.8571429, "March": 161.0, "April": 247.9047619, "May": 186.4761905, "June": 68.85714286, "July": 77.9047619, "August": 112.3333333, "Sep": 126.3809524, "Oct": 301.2380952, "Nov": 380.7619048, "Dec": 481.5714286, "sum": 2645.333333 }, "geometry": { "type": "Point", "coordinates": [ 80.840000016676342, 7.06000000529545 ] } },
{ "type": "Feature", "properties": { "station_na": "hingurakgoda-agriculture", "longitude": 80.95, "latitude": 8.05, "Jan": 149.3809524, "Feb": 120.0952381, "March": 64.38095238, "April": 87.23809524000001, "May": 86.28571429, "June": 14.9047619, "July": 28.42857143, "August": 56.80952381, "Sep": 74.38095238, "Oct": 222.5238095, "Nov": 291.0, "Dec": 361.7619048, "sum": 1557.190476 }, "geometry": { "type": "Point", "coordinates": [ 80.95000001637213, 8.050000004286455 ] } },
{ "type": "Feature", "properties": { "station_na": "holly_rood_est", "longitude": 80.67, "latitude": 6.95, "Jan": 78.61904762, "Feb": 71.85714286, "March": 109.1904762, "April": 216.4285714, "May": 280.7619048, "June": 313.3333333, "July": 290.0, "August": 280.0952381, "Sep": 249.5714286, "Oct": 301.7619048, "Nov": 246.3333333, "Dec": 158.8095238, "sum": 2596.761905 }, "geometry": { "type": "Point", "coordinates": [ 80.670000017055855, 6.95000000543311 ] } },
{ "type": "Feature", "properties": { "station_na": "holmwood_est", "longitude": 80.72, "latitude": 6.85, "Jan": 61.28571429, "Feb": 61.76190476, "March": 122.7619048, "April": 240.8571429, "May": 187.8571429, "June": 152.5714286, "July": 125.4761905, "August": 141.0952381, "Sep": 159.8095238, "Oct": 215.3333333, "Nov": 207.1904762, "Dec": 109.952381, "sum": 1785.952381 }, "geometry": { "type": "Point", "coordinates": [ 80.720000016955154, 6.850000005526725 ] } },
{ "type": "Feature", "properties": { "station_na": "hope estate", "longitude": 80.75, "latitude": 7.1, "Jan": 331.2857143, "Feb": 189.0, "March": 127.5238095, "April": 277.8095238, "May": 198.0, "June": 140.5714286, "July": 163.8095238, "August": 126.3809524, "Sep": 169.3333333, "Oct": 362.8095238, "Nov": 384.5714286, "Dec": 465.5238095, "sum": 2936.619048 }, "geometry": { "type": "Point", "coordinates": [ 80.750000016868725, 7.100000005268755 ] } },
{ "type": "Feature", "properties": { "station_na": "hope_est", "longitude": 80.75, "latitude": 7.1, "Jan": 331.2857143, "Feb": 189.0, "March": 127.5238095, "April": 277.8095238, "May": 198.0, "June": 140.5714286, "July": 163.8095238, "August": 126.3809524, "Sep": 169.3333333, "Oct": 362.8095238, "Nov": 384.5714286, "Dec": 458.8095238, "sum": 2929.904762 }, "geometry": { "type": "Point", "coordinates": [ 80.750000016868725, 7.100000005268755 ] } },
{ "type": "Feature", "properties": { "station_na": "huruluwewa", "longitude": 80.72, "latitude": 8.22, "Jan": 130.952381, "Feb": 80.80952381, "March": 60.38095238, "April": 100.1904762, "May": 107.7619048, "June": 6.428571429, "July": 21.04761905, "August": 60.04761905, "Sep": 70.9047619, "Oct": 233.8571429, "Nov": 264.5714286, "Dec": 321.047619, "sum": 1458.0 }, "geometry": { "type": "Point", "coordinates": [ 80.720000016860297, 8.220000004147575 ] } },
{ "type": "Feature", "properties": { "station_na": "illukkumbura", "longitude": 80.77, "latitude": 7.55, "Jan": 418.2380952, "Feb": 263.4761905, "March": 130.7142857, "April": 196.4285714, "May": 104.3333333, "June": 29.28571429, "July": 29.66666667, "August": 41.57142857, "Sep": 108.5714286, "Oct": 329.6666667, "Nov": 548.6666667, "Dec": 650.0952381, "sum": 2850.714286 }, "geometry": { "type": "Point", "coordinates": [ 80.77000001679167, 7.550000004812071 ] } },
{ "type": "Feature", "properties": { "station_na": "kahagalle estate", "longitude": 80.9722, "latitude": 6.7944, "Jan": 128.8571429, "Feb": 96.47619048, "March": 131.4285714, "April": 238.8095238, "May": 158.7619048, "June": 33.57142857, "July": 58.04761905, "August": 65.9047619, "Sep": 137.3809524, "Oct": 334.4761905, "Nov": 319.6666667, "Dec": 229.6666667, "sum": 1933.047619 }, "geometry": { "type": "Point", "coordinates": [ 80.972200016412714, 6.794400005543718 ] } },
{ "type": "Feature", "properties": { "station_na": "kal aar", "longitude": 81.27, "latitude": 8.3, "Jan": 176.8095238, "Feb": 100.0, "March": 50.38095238, "April": 32.71428571, "May": 82.52380952, "June": 28.52380952, "July": 32.52380952, "August": 77.28571429, "Sep": 82.9047619, "Oct": 239.3809524, "Nov": 361.1904762, "Dec": 431.7619048, "sum": 1696.0 }, "geometry": { "type": "Point", "coordinates": [ 81.270000015678008, 8.300000003996916 ] } },
{ "type": "Feature", "properties": { "station_na": "kandaketiya", "longitude": 81.02, "latitude": 7.17, "Jan": 333.3333333, "Feb": 197.3333333, "March": 89.95238095000001, "April": 102.6190476, "May": 85.04761905, "June": 17.33333333, "July": 30.14285714, "August": 48.0, "Sep": 58.61904762, "Oct": 195.047619, "Nov": 343.3333333, "Dec": 426.1904762, "sum": 1926.952381 }, "geometry": { "type": "Point", "coordinates": [ 81.020000016279283, 7.17000000515764 ] } },
{ "type": "Feature", "properties": { "station_na": "kandaketiya", "longitude": 81.02, "latitude": 7.17, "Jan": 333.3333333, "Feb": 197.3333333, "March": 89.95238095000001, "April": 102.6190476, "May": 85.04761905, "June": 17.33333333, "July": 30.14285714, "August": 48.0, "Sep": 58.61904762, "Oct": 195.047619, "Nov": 343.3333333, "Dec": 426.1904762, "sum": 1926.952381 }, "geometry": { "type": "Point", "coordinates": [ 81.020000016279283, 7.17000000515764 ] } },
{ "type": "Feature", "properties": { "station_na": "kandy_kings_pavillion", "longitude": 80.63, "latitude": 7.3, "Jan": 89.61904762, "Feb": 71.95238095000001, "March": 118.3333333, "April": 205.7142857, "May": 147.7619048, "June": 124.1428571, "July": 100.0952381, "August": 102.5238095, "Sep": 125.8571429, "Oct": 272.0, "Nov": 258.8095238, "Dec": 199.3809524, "sum": 1816.190476 }, "geometry": { "type": "Point", "coordinates": [ 80.630000017115179, 7.300000005084845 ] } },
{ "type": "Feature", "properties": { "station_na": "kantale tank", "longitude": 80.98, "latitude": 8.35, "Jan": 180.047619, "Feb": 118.3809524, "March": 67.04761905, "April": 89.95238095000001, "May": 97.0952381, "June": 17.33333333, "July": 39.57142857, "August": 81.14285714, "Sep": 77.19047619, "Oct": 258.4761905, "Nov": 348.047619, "Dec": 398.7142857, "sum": 1773.0 }, "geometry": { "type": "Point", "coordinates": [ 80.98000001629272, 8.350000003983901 ] } },
{ "type": "Feature", "properties": { "station_na": "katugastota", "longitude": 80.63, "latitude": 7.33, "Jan": 101.8095238, "Feb": 74.66666667, "March": 122.3809524, "April": 199.9047619, "May": 139.4285714, "June": 117.3809524, "July": 102.9047619, "August": 99.61904762, "Sep": 117.047619, "Oct": 298.6190476, "Nov": 268.0952381, "Dec": 211.952381, "sum": 1853.809524 }, "geometry": { "type": "Point", "coordinates": [ 80.630000017112906, 7.330000005054538 ] } },
{ "type": "Feature", "properties": { "station_na": "katugastota", "longitude": 80.63, "latitude": 7.33, "Jan": 101.8095238, "Feb": 74.66666667, "March": 122.3809524, "April": 199.9047619, "May": 139.4285714, "June": 117.3809524, "July": 102.9047619, "August": 99.61904762, "Sep": 117.8571429, "Oct": 298.6190476, "Nov": 268.0952381, "Dec": 211.952381, "sum": 1854.619048 }, "geometry": { "type": "Point", "coordinates": [ 80.630000017112906, 7.330000005054538 ] } },
{ "type": "Feature", "properties": { "station_na": "kaudulla wewa", "longitude": 80.93, "latitude": 8.13, "Jan": 160.5238095, "Feb": 86.23809524000001, "March": 58.23809524, "April": 80.66666667, "May": 74.52380952, "June": 8.904761905000001, "July": 29.42857143, "August": 52.0952381, "Sep": 65.47619048, "Oct": 225.3333333, "Nov": 288.6190476, "Dec": 357.6190476, "sum": 1487.666667 }, "geometry": { "type": "Point", "coordinates": [ 80.930000016410872, 8.130000004209373 ] } },
{ "type": "Feature", "properties": { "station_na": "kenilworth", "longitude": 80.48, "latitude": 6.08, "Jan": 100.4761905, "Feb": 140.2857143, "March": 200.3809524, "April": 437.8095238, "May": 716.2380952, "June": 755.4761905, "July": 647.2380952, "August": 569.2380952, "Sep": 585.047619, "Oct": 676.5714286, "Nov": 422.0, "Dec": 200.0952381, "sum": 5450.857143 }, "geometry": { "type": "Point", "coordinates": [ 80.480000017559846, 6.080000006354618 ] } },
{ "type": "Feature", "properties": { "station_na": "kirklees estate", "longitude": 80.93, "latitude": 6.98, "Jan": 408.2380952, "Feb": 247.4285714, "March": 190.4285714, "April": 267.3333333, "May": 177.8095238, "June": 47.47619048, "July": 46.76190476, "August": 65.23809524000001, "Sep": 146.4285714, "Oct": 369.4761905, "Nov": 490.8571429, "Dec": 640.7619048, "sum": 3098.238095 }, "geometry": { "type": "Point", "coordinates": [ 80.930000016488123, 6.980000005362583 ] } },
{ "type": "Feature", "properties": { "station_na": "kobonella estate", "longitude": 80.85, "latitude": 7.35, "Jan": 425.5714286, "Feb": 265.0952381, "March": 120.5238095, "April": 151.4761905, "May": 85.42857143000001, "June": 39.0952381, "July": 37.28571429, "August": 52.71428571, "Sep": 69.04761905, "Oct": 215.2380952, "Nov": 472.5238095, "Dec": 504.7142857, "sum": 2438.714286 }, "geometry": { "type": "Point", "coordinates": [ 80.850000016632336, 7.350000005001548 ] } },
{ "type": "Feature", "properties": { "station_na": "kobonella estate", "longitude": 80.85, "latitude": 7.35, "Jan": 425.5714286, "Feb": 265.0952381, "March": 120.5238095, "April": 151.4761905, "May": 85.42857143000001, "June": 39.0952381, "July": 37.28571429, "August": 52.71428571, "Sep": 69.04761905, "Oct": 215.2380952, "Nov": 472.5238095, "Dec": 504.7142857, "sum": 2438.714286 }, "geometry": { "type": "Point", "coordinates": [ 80.850000016632336, 7.350000005001548 ] } },
{ "type": "Feature", "properties": { "station_na": "kotmale_dam", "longitude": 80.58, "latitude": 7.02, "Jan": 71.61904762, "Feb": 71.42857143000001, "March": 121.2380952, "April": 240.3809524, "May": 257.3809524, "June": 261.1904762, "July": 239.3333333, "August": 222.8095238, "Sep": 214.3809524, "Oct": 330.1428571, "Nov": 245.8095238, "Dec": 161.3333333, "sum": 2437.047619 }, "geometry": { "type": "Point", "coordinates": [ 80.580000017247386, 7.020000005376218 ] } },
{ "type": "Feature", "properties": { "station_na": "kotmale_ps", "longitude": 80.57, "latitude": 7.12, "Jan": 70.38095238, "Feb": 71.57142857, "March": 116.5238095, "April": 234.6190476, "May": 232.4285714, "June": 260.3809524, "July": 234.047619, "August": 217.2857143, "Sep": 213.952381, "Oct": 326.3333333, "Nov": 247.0952381, "Dec": 137.7142857, "sum": 2362.333333 }, "geometry": { "type": "Point", "coordinates": [ 80.57000001726108, 7.120000005276323 ] } },
{ "type": "Feature", "properties": { "station_na": "kudasigiriya", "longitude": 81.13, "latitude": 7.68, "Jan": 222.952381, "Feb": 134.2380952, "March": 77.0, "April": 112.3809524, "May": 78.0, "June": 7.428571429, "July": 30.14285714, "August": 61.42857143, "Sep": 77.85714286, "Oct": 276.4761905, "Nov": 327.4761905, "Dec": 417.0, "sum": 1822.380952 }, "geometry": { "type": "Point", "coordinates": [ 81.130000016008566, 7.680000004631154 ] } },
{ "type": "Feature", "properties": { "station_na": "kundasale farm", "longitude": 80.68, "latitude": 7.27, "Jan": 81.61904762, "Feb": 52.66666667, "March": 84.47619048, "April": 164.952381, "May": 91.71428571, "June": 66.76190476, "July": 49.38095238, "August": 65.95238095000001, "Sep": 68.57142857, "Oct": 199.6666667, "Nov": 225.5714286, "Dec": 191.8571429, "sum": 1343.190476 }, "geometry": { "type": "Point", "coordinates": [ 80.680000017008084, 7.270000005107587 ] } },
{ "type": "Feature", "properties": { "station_na": "kurundu oya", "longitude": 80.83, "latitude": 7.07, "Jan": 427.1904762, "Feb": 202.5238095, "March": 152.6666667, "April": 233.5714286, "May": 154.3809524, "June": 43.71428571, "July": 68.95238095000001, "August": 78.9047619, "Sep": 120.8571429, "Oct": 328.2380952, "Nov": 421.6190476, "Dec": 548.0952381, "sum": 2780.714286 }, "geometry": { "type": "Point", "coordinates": [ 80.830000016697213, 7.070000005286864 ] } },
{ "type": "Feature", "properties": { "station_na": "labukelle", "longitude": 80.72, "latitude": 7.02, "Jan": 143.8571429, "Feb": 94.52380952, "March": 104.3809524, "April": 209.7619048, "May": 263.5714286, "June": 317.4761905, "July": 298.6190476, "August": 275.1428571, "Sep": 283.5238095, "Oct": 364.2380952, "Nov": 310.0952381, "Dec": 271.4761905, "sum": 2936.666667 }, "geometry": { "type": "Point", "coordinates": [ 80.720000016940688, 7.020000005354338 ] } },
{ "type": "Feature", "properties": { "station_na": "labukelle", "longitude": 80.72, "latitude": 7.02, "Jan": 143.8571429, "Feb": 94.52380952, "March": 104.3809524, "April": 209.7619048, "May": 263.5714286, "June": 317.4761905, "July": 298.6190476, "August": 275.1428571, "Sep": 283.5238095, "Oct": 364.2380952, "Nov": 310.0952381, "Dec": 271.4761905, "sum": 2936.666667 }, "geometry": { "type": "Point", "coordinates": [ 80.720000016940688, 7.020000005354338 ] } },
{ "type": "Feature", "properties": { "station_na": "ledgerwatte estate", "longitude": 81.02, "latitude": 7.03, "Jan": 387.4761905, "Feb": 198.5714286, "March": 151.9047619, "April": 237.6666667, "May": 120.7142857, "June": 27.9047619, "July": 33.19047619, "August": 56.19047619, "Sep": 97.9047619, "Oct": 256.3333333, "Nov": 429.3809524, "Dec": 539.0, "sum": 2536.238095 }, "geometry": { "type": "Point", "coordinates": [ 81.02000001629024, 7.030000005298577 ] } },
{ "type": "Feature", "properties": { "station_na": "ledgerwatte estate", "longitude": 81.02, "latitude": 7.03, "Jan": 390.5714286, "Feb": 200.1904762, "March": 151.2857143, "April": 237.6666667, "May": 120.7142857, "June": 27.9047619, "July": 34.61904762, "August": 55.57142857, "Sep": 97.9047619, "Oct": 256.3333333, "Nov": 429.3809524, "Dec": 555.7619048, "sum": 2557.904762 }, "geometry": { "type": "Point", "coordinates": [ 81.02000001629024, 7.030000005298577 ] } },
{ "type": "Feature", "properties": { "station_na": "liddesdale estate", "longitude": 80.85, "latitude": 7.03, "Jan": 285.1904762, "Feb": 162.1904762, "March": 134.4761905, "April": 206.7619048, "May": 141.1904762, "June": 36.71428571, "July": 43.47619048, "August": 65.33333333, "Sep": 96.57142857, "Oct": 269.952381, "Nov": 343.6190476, "Dec": 413.5238095, "sum": 2199.0 }, "geometry": { "type": "Point", "coordinates": [ 80.850000016657077, 7.030000005324232 ] } },
{ "type": "Feature", "properties": { "station_na": "loolecondera estate", "longitude": 80.7, "latitude": 7.12, "Jan": 216.2380952, "Feb": 132.3809524, "March": 126.9047619, "April": 261.2857143, "May": 188.8571429, "June": 122.952381, "July": 140.0, "August": 124.7142857, "Sep": 150.5714286, "Oct": 329.3809524, "Nov": 348.1428571, "Dec": 354.4761905, "sum": 2495.904762 }, "geometry": { "type": "Point", "coordinates": [ 80.700000016976176, 7.1200000052562 ] } },
{ "type": "Feature", "properties": { "station_na": "loolecondera_est", "longitude": 80.711, "latitude": 7.128, "Jan": 216.2380952, "Feb": 132.3809524, "March": 126.9047619, "April": 261.2857143, "May": 188.8571429, "June": 122.952381, "July": 140.0, "August": 124.7142857, "Sep": 150.5714286, "Oct": 329.3809524, "Nov": 348.1428571, "Dec": 354.4761905, "sum": 2495.904762 }, "geometry": { "type": "Point", "coordinates": [ 80.711000016951516, 7.12800000524641 ] } },
{ "type": "Feature", "properties": { "station_na": "lower spring valley", "longitude": 81.1, "latitude": 6.92, "Jan": 215.047619, "Feb": 132.6190476, "March": 153.9047619, "April": 273.4761905, "May": 191.0952381, "June": 84.47619048, "July": 72.85714286, "August": 121.7619048, "Sep": 141.1428571, "Oct": 338.3809524, "Nov": 379.3333333, "Dec": 351.2380952, "sum": 2455.333333 }, "geometry": { "type": "Point", "coordinates": [ 81.100000016127609, 6.920000005397454 ] } },
{ "type": "Feature", "properties": { "station_na": "madulkelle", "longitude": 80.73, "latitude": 7.37, "Jan": 133.047619, "Feb": 80.76190476, "March": 95.42857143000001, "April": 158.8095238, "May": 157.8095238, "June": 123.8095238, "July": 117.3333333, "August": 121.2857143, "Sep": 149.4285714, "Oct": 299.047619, "Nov": 267.2380952, "Dec": 259.7619048, "sum": 1963.761905 }, "geometry": { "type": "Point", "coordinates": [ 80.730000016891466, 7.37000000499916 ] } },
{ "type": "Feature", "properties": { "station_na": "mahaberiyatenna", "longitude": 80.77, "latitude": 7.27, "Jan": 106.7142857, "Feb": 78.0952381, "March": 79.0, "April": 153.6190476, "May": 90.0, "June": 36.52380952, "July": 29.95238095, "August": 55.0, "Sep": 72.57142857, "Oct": 214.1904762, "Nov": 262.5714286, "Dec": 234.8095238, "sum": 1413.047619 }, "geometry": { "type": "Point", "coordinates": [ 80.770000016811892, 7.270000005094033 ] } },
{ "type": "Feature", "properties": { "station_na": "mahadowa estate", "longitude": 81.17, "latitude": 7.02, "Jan": 275.4285714, "Feb": 234.6190476, "March": 176.0, "April": 262.6190476, "May": 148.6190476, "June": 41.57142857, "July": 62.95238095, "August": 89.95238095000001, "Sep": 129.2857143, "Oct": 336.3333333, "Nov": 447.5238095, "Dec": 394.4285714, "sum": 2599.333333 }, "geometry": { "type": "Point", "coordinates": [ 81.170000015970018, 7.020000005286421 ] } },
{ "type": "Feature", "properties": { "station_na": "mapakadawewa", "longitude": 81.03, "latitude": 7.27, "Jan": 346.2380952, "Feb": 211.0952381, "March": 113.9047619, "April": 155.047619, "May": 94.76190476, "June": 13.33333333, "July": 31.61904762, "August": 61.19047619, "Sep": 96.80952381, "Oct": 273.4285714, "Nov": 445.2380952, "Dec": 490.8095238, "sum": 2333.47619 }, "geometry": { "type": "Point", "coordinates": [ 81.030000016250298, 7.270000005055671 ] } },
{ "type": "Feature", "properties": { "station_na": "marigold factory", "longitude": 80.82, "latitude": 7.07, "Jan": 262.0952381, "Feb": 149.6190476, "March": 126.7619048, "April": 184.4285714, "May": 113.9047619, "June": 28.04761905, "July": 46.71428571, "August": 52.28571429, "Sep": 106.5714286, "Oct": 222.6190476, "Nov": 301.1904762, "Dec": 363.8571429, "sum": 1958.095238 }, "geometry": { "type": "Point", "coordinates": [ 80.820000016718922, 7.070000005288389 ] } },
{ "type": "Feature", "properties": { "station_na": "mickfield farm", "longitude": 80.88, "latitude": 6.85, "Jan": 110.5238095, "Feb": 78.66666667, "March": 87.28571429, "April": 168.2857143, "May": 134.8095238, "June": 36.57142857, "July": 42.0952381, "August": 42.47619048, "Sep": 103.2857143, "Oct": 238.047619, "Nov": 239.4761905, "Dec": 182.6666667, "sum": 1464.190476 }, "geometry": { "type": "Point", "coordinates": [ 80.880000016607141, 6.850000005501697 ] } },
{ "type": "Feature", "properties": { "station_na": "minipe lb", "longitude": 80.97, "latitude": 7.2, "Jan": 291.2380952, "Feb": 189.1904762, "March": 70.0, "April": 76.95238095000001, "May": 58.28571429, "June": 11.71428571, "July": 14.85714286, "August": 24.76190476, "Sep": 34.19047619, "Oct": 149.9047619, "Nov": 317.952381, "Dec": 391.952381, "sum": 1631.0 }, "geometry": { "type": "Point", "coordinates": [ 80.970000016384489, 7.200000005134812 ] } },
{ "type": "Feature", "properties": { "station_na": "minipe lb", "longitude": 80.97, "latitude": 7.2, "Jan": 294.8095238, "Feb": 194.7619048, "March": 67.95238095000001, "April": 76.71428571, "May": 59.47619048, "June": 11.71428571, "July": 13.95238095, "August": 27.80952381, "Sep": 34.42857143, "Oct": 149.9047619, "Nov": 317.952381, "Dec": 391.952381, "sum": 1641.428572 }, "geometry": { "type": "Point", "coordinates": [ 80.970000016384489, 7.200000005134812 ] } },
{ "type": "Feature", "properties": { "station_na": "minneriya tank", "longitude": 80.9, "latitude": 8.05, "Jan": 156.3809524, "Feb": 111.4285714, "March": 62.71428571, "April": 87.57142857, "May": 84.57142857, "June": 9.952380952, "July": 24.19047619, "August": 56.80952381, "Sep": 73.28571429, "Oct": 227.2857143, "Nov": 309.6190476, "Dec": 375.7619048, "sum": 1579.571429 }, "geometry": { "type": "Point", "coordinates": [ 80.900000016479723, 8.050000004293146 ] } },
{ "type": "Feature", "properties": { "station_na": "nagrak_est", "longitude": 80.78, "latitude": 6.77, "Jan": 184.047619, "Feb": 127.952381, "March": 210.8571429, "April": 356.5238095, "May": 158.1904762, "June": 54.42857143, "July": 52.71428571, "August": 80.66666667, "Sep": 119.2857143, "Oct": 337.6190476, "Nov": 425.4761905, "Dec": 307.5238095, "sum": 2415.285714 }, "geometry": { "type": "Point", "coordinates": [ 80.780000016831352, 6.770000005598474 ] } },
{ "type": "Feature", "properties": { "station_na": "nawalapitiya", "longitude": 80.53, "latitude": 7.07, "Jan": 50.76190476, "Feb": 95.71428571, "March": 131.1904762, "April": 295.8095238, "May": 386.3333333, "June": 405.6190476, "July": 318.2380952, "August": 321.2857143, "Sep": 348.0, "Oct": 435.3333333, "Nov": 279.4285714, "Dec": 170.1904762, "sum": 3237.904762 }, "geometry": { "type": "Point", "coordinates": [ 80.530000017353274, 7.070000005333334 ] } },
{ "type": "Feature", "properties": { "station_na": "new forest (levalon)", "longitude": 80.683, "latitude": 7.15, "Jan": 185.6666667, "Feb": 118.952381, "March": 128.7619048, "April": 245.3809524, "May": 189.1428571, "June": 145.9047619, "July": 154.1428571, "August": 147.7142857, "Sep": 180.6190476, "Oct": 356.6666667, "Nov": 338.952381, "Dec": 300.1904762, "sum": 2492.095238 }, "geometry": { "type": "Point", "coordinates": [ 80.683000017010912, 7.150000005228457 ] } },
{ "type": "Feature", "properties": { "station_na": "new_forest", "longitude": 80.68, "latitude": 7.15, "Jan": 185.6666667, "Feb": 123.5238095, "March": 129.952381, "April": 253.0, "May": 193.0, "June": 145.9047619, "July": 152.5238095, "August": 147.7142857, "Sep": 180.6190476, "Oct": 356.6666667, "Nov": 338.952381, "Dec": 299.4761905, "sum": 2507.0 }, "geometry": { "type": "Point", "coordinates": [ 80.680000017017477, 7.150000005228907 ] } },
{ "type": "Feature", "properties": { "station_na": "newburgh-southerland", "longitude": 81.09, "latitude": 6.87, "Jan": 135.4761905, "Feb": 103.3333333, "March": 102.5238095, "April": 178.1428571, "May": 140.1904762, "June": 50.14285714, "July": 55.04761905, "August": 91.0952381, "Sep": 127.6190476, "Oct": 249.3333333, "Nov": 287.6666667, "Dec": 249.7619048, "sum": 1770.333333 }, "geometry": { "type": "Point", "coordinates": [ 81.090000016153155, 6.870000005449383 ] } },
{ "type": "Feature", "properties": { "station_na": "nilloomally estate", "longitude": 80.7167, "latitude": 7.4333, "Jan": 205.4285714, "Feb": 111.4761905, "March": 127.7142857, "April": 214.047619, "May": 171.6666667, "June": 139.5714286, "July": 130.4761905, "August": 145.6666667, "Sep": 171.7619048, "Oct": 357.6666667, "Nov": 358.5238095, "Dec": 344.9047619, "sum": 2478.904762 }, "geometry": { "type": "Point", "coordinates": [ 80.716700016915865, 7.433300004937334 ] } },
{ "type": "Feature", "properties": { "station_na": "padiyatalawa moh", "longitude": 81.23, "latitude": 7.4, "Jan": 236.5714286, "Feb": 152.3333333, "March": 74.9047619, "April": 86.42857143000001, "May": 110.1904762, "June": 18.47619048, "July": 58.95238095, "August": 55.33333333, "Sep": 102.7142857, "Oct": 296.5238095, "Nov": 340.2857143, "Dec": 447.3333333, "sum": 1980.047619 }, "geometry": { "type": "Point", "coordinates": [ 81.230000015814326, 7.400000004896945 ] } },
{ "type": "Feature", "properties": { "station_na": "palampoddar", "longitude": 81.07, "latitude": 8.55, "Jan": 186.3333333, "Feb": 121.9047619, "March": 91.38095238, "April": 86.04761905, "May": 99.38095238, "June": 21.95238095, "July": 46.23809524, "August": 92.61904762, "Sep": 119.047619, "Oct": 267.1904762, "Nov": 477.6666667, "Dec": 479.2857143, "sum": 2089.047619 }, "geometry": { "type": "Point", "coordinates": [ 81.070000016091626, 8.550000003774135 ] } },
{ "type": "Feature", "properties": { "station_na": "pallekelle", "longitude": 80.72, "latitude": 7.28, "Jan": 80.85714286, "Feb": 56.61904762, "March": 81.0, "April": 162.4285714, "May": 94.23809524000001, "June": 53.52380952, "July": 35.0952381, "August": 64.33333333, "Sep": 63.80952381, "Oct": 208.6666667, "Nov": 238.8571429, "Dec": 201.1428571, "sum": 1340.571429 }, "geometry": { "type": "Point", "coordinates": [ 80.720000016920025, 7.280000005091442 ] } },
{ "type": "Feature", "properties": { "station_na": "panviladeniya", "longitude": 80.62, "latitude": 7.15, "Jan": 82.71428571, "Feb": 81.85714286, "March": 122.7142857, "April": 271.6190476, "May": 189.7142857, "June": 151.0952381, "July": 152.4761905, "August": 138.4761905, "Sep": 172.047619, "Oct": 312.5238095, "Nov": 290.9047619, "Dec": 175.0952381, "sum": 2141.238095 }, "geometry": { "type": "Point", "coordinates": [ 80.620000017148854, 7.150000005238156 ] } },
{ "type": "Feature", "properties": { "station_na": "passara tea estate", "longitude": 81.2, "latitude": 6.95, "Jan": 210.3333333, "Feb": 128.5714286, "March": 141.5238095, "April": 248.0952381, "May": 143.5238095, "June": 58.33333333, "July": 87.85714286, "August": 85.42857143000001, "Sep": 114.0952381, "Oct": 271.3809524, "Nov": 348.5714286, "Dec": 269.2380952, "sum": 2106.952381 }, "geometry": { "type": "Point", "coordinates": [ 81.200000015911684, 6.950000005352392 ] } },
{ "type": "Feature", "properties": { "station_na": "peradeniya", "longitude": 80.6, "latitude": 7.267, "Jan": 69.28571429, "Feb": 58.85714286, "March": 120.0, "April": 208.3333333, "May": 169.1428571, "June": 136.1428571, "July": 112.6190476, "August": 113.4761905, "Sep": 140.3333333, "Oct": 302.952381, "Nov": 260.0, "Dec": 177.7619048, "sum": 1868.904762 }, "geometry": { "type": "Point", "coordinates": [ 80.60000001718349, 7.267000005122791 ] } },
{ "type": "Feature", "properties": { "station_na": "pitarat malai estate", "longitude": 80.9917, "latitude": 6.7833, "Jan": 134.952381, "Feb": 113.6666667, "March": 192.0952381, "April": 369.7619048, "May": 176.0, "June": 49.47619048, "July": 60.80952381, "August": 70.52380952, "Sep": 205.7142857, "Oct": 416.8095238, "Nov": 414.7142857, "Dec": 259.6190476, "sum": 2464.142857 }, "geometry": { "type": "Point", "coordinates": [ 80.991700016371666, 6.783300005551947 ] } },
{ "type": "Feature", "properties": { "station_na": "polgolla", "longitude": 80.62, "latitude": 7.32, "Jan": 92.28571429, "Feb": 61.76190476, "March": 116.5714286, "April": 185.9047619, "May": 135.1904762, "June": 104.4761905, "July": 82.85714286, "August": 85.85714286, "Sep": 97.61904762, "Oct": 261.3333333, "Nov": 237.0952381, "Dec": 215.7142857, "sum": 1676.666667 }, "geometry": { "type": "Point", "coordinates": [ 80.620000017135581, 7.32000000506616 ] } },
{ "type": "Feature", "properties": { "station_na": "polonnaruwa agri station", "longitude": 81.03, "latitude": 7.92, "Jan": 175.9047619, "Feb": 121.952381, "March": 67.52380952, "April": 82.61904762, "May": 79.9047619, "June": 10.66666667, "July": 29.52380952, "August": 50.52380952, "Sep": 70.04761905, "Oct": 234.7619048, "Nov": 315.8095238, "Dec": 377.0952381, "sum": 1616.333333 }, "geometry": { "type": "Point", "coordinates": [ 81.030000016207794, 7.92000000440534 ] } },
{ "type": "Feature", "properties": { "station_na": "pss", "longitude": 80.964, "latitude": 7.9, "Jan": 213.3333333, "Feb": 146.1904762, "March": 90.33333333, "April": 110.9047619, "May": 98.47619048, "June": 6.238095238, "July": 25.71428571, "August": 34.0, "Sep": 76.38095238, "Oct": 241.4761905, "Nov": 341.2380952, "Dec": 436.0, "sum": 1820.285714 }, "geometry": { "type": "Point", "coordinates": [ 80.964000016350468, 7.900000004434215 ] } },
{ "type": "Feature", "properties": { "station_na": "randenigala", "longitude": 80.92, "latitude": 7.2, "Jan": 275.1904762, "Feb": 163.3809524, "March": 90.95238095000001, "April": 102.6190476, "May": 49.0, "June": 9.095238095, "July": 15.33333333, "August": 29.52380952, "Sep": 48.71428571, "Oct": 186.047619, "Nov": 341.3333333, "Dec": 379.4285714, "sum": 1690.619048 }, "geometry": { "type": "Point", "coordinates": [ 80.920000016492253, 7.200000005142215 ] } },
{ "type": "Feature", "properties": { "station_na": "rantembe", "longitude": 80.93, "latitude": 7.2, "Jan": 314.7142857, "Feb": 180.2857143, "March": 109.5238095, "April": 97.57142857, "May": 60.47619048, "June": 12.47619048, "July": 16.42857143, "August": 34.9047619, "Sep": 62.57142857, "Oct": 214.3809524, "Nov": 362.6190476, "Dec": 446.6666667, "sum": 1912.619048 }, "geometry": { "type": "Point", "coordinates": [ 80.930000016470686, 7.20000000514073 ] } },
{ "type": "Feature", "properties": { "station_na": "sandringham", "longitude": 80.75, "latitude": 6.85, "Jan": 65.42857143000001, "Feb": 69.85714286, "March": 110.6666667, "April": 206.4285714, "May": 180.6666667, "June": 153.4761905, "July": 142.0, "August": 134.7142857, "Sep": 144.1428571, "Oct": 212.2857143, "Nov": 193.1428571, "Dec": 115.6666667, "sum": 1728.47619 }, "geometry": { "type": "Point", "coordinates": [ 80.7500000168897, 6.850000005522002 ] } },
{ "type": "Feature", "properties": { "station_na": "shannon_est", "longitude": 80.57, "latitude": 6.9, "Jan": 86.28571429, "Feb": 94.85714286, "March": 153.5238095, "April": 287.952381, "May": 353.5714286, "June": 566.5714286, "July": 516.952381, "August": 470.1904762, "Sep": 379.4285714, "Oct": 414.8571429, "Nov": 307.8095238, "Dec": 176.952381, "sum": 3808.952381 }, "geometry": { "type": "Point", "coordinates": [ 80.570000017279682, 6.900000005499753 ] } },
{ "type": "Feature", "properties": { "station_na": "sita eliya", "longitude": 80.8, "latitude": 6.93, "Jan": 144.6666667, "Feb": 91.80952381, "March": 101.4761905, "April": 157.7619048, "May": 173.0, "June": 127.4761905, "July": 119.047619, "August": 120.4761905, "Sep": 157.4285714, "Oct": 258.4285714, "Nov": 252.8571429, "Dec": 223.1904762, "sum": 1927.619048 }, "geometry": { "type": "Point", "coordinates": [ 80.800000016773936, 6.930000005433088 ] } },
{ "type": "Feature", "properties": { "station_na": "sitaeliya", "longitude": 80.8, "latitude": 6.93, "Jan": 144.6666667, "Feb": 91.80952381, "March": 101.4761905, "April": 157.7619048, "May": 173.0, "June": 127.4761905, "July": 119.047619, "August": 120.4761905, "Sep": 157.4285714, "Oct": 258.4285714, "Nov": 252.8571429, "Dec": 223.1904762, "sum": 1927.619048 }, "geometry": { "type": "Point", "coordinates": [ 80.800000016773936, 6.930000005433088 ] } },
{ "type": "Feature", "properties": { "station_na": "sitaeliya govt farm", "longitude": 80.78, "latitude": 6.95, "Jan": 132.1428571, "Feb": 79.23809524000001, "March": 94.0952381, "April": 135.4285714, "May": 163.2380952, "June": 121.0, "July": 122.3333333, "August": 115.1904762, "Sep": 152.0, "Oct": 251.4761905, "Nov": 236.2380952, "Dec": 200.047619, "sum": 1802.428571 }, "geometry": { "type": "Point", "coordinates": [ 80.780000016815762, 6.950000005415931 ] } },
{ "type": "Feature", "properties": { "station_na": "sitaeliya_govt_farm", "longitude": 80.793, "latitude": 6.957, "Jan": 132.1428571, "Feb": 79.23809524000001, "March": 94.0952381, "April": 135.4285714, "May": 163.2380952, "June": 121.0, "July": 122.3333333, "August": 115.1904762, "Sep": 152.0, "Oct": 251.4761905, "Nov": 236.2380952, "Dec": 200.047619, "sum": 1802.428571 }, "geometry": { "type": "Point", "coordinates": [ 80.793000016786891, 6.957000005406832 ] } },
{ "type": "Feature", "properties": { "station_na": "sogama", "longitude": 80.62, "latitude": 7.12, "Jan": 121.7142857, "Feb": 114.1428571, "March": 155.3333333, "April": 273.8095238, "May": 217.1428571, "June": 222.6190476, "July": 214.0952381, "August": 185.0, "Sep": 185.0, "Oct": 220.4761905, "Nov": 236.4285714, "Dec": 162.8095238, "sum": 2308.571428 }, "geometry": { "type": "Point", "coordinates": [ 80.620000017151284, 7.120000005268549 ] } },
{ "type": "Feature", "properties": { "station_na": "st.catherine division", "longitude": 81.0167, "latitude": 6.7986, "Jan": 147.6666667, "Feb": 102.7619048, "March": 171.5714286, "April": 298.2380952, "May": 140.3333333, "June": 38.42857143, "July": 45.0952381, "August": 57.33333333, "Sep": 135.952381, "Oct": 385.2857143, "Nov": 374.6666667, "Dec": 264.4761905, "sum": 2161.809524 }, "geometry": { "type": "Point", "coordinates": [ 81.016700016316534, 6.798600005532624 ] } },
{ "type": "Feature", "properties": { "station_na": "summerset_est", "longitude": 80.7, "latitude": 6.93, "Jan": 64.9047619, "Feb": 58.85714286, "March": 95.9047619, "April": 175.1904762, "May": 209.4285714, "June": 238.2380952, "July": 254.4285714, "August": 215.3809524, "Sep": 180.7142857, "Oct": 246.7619048, "Nov": 200.2380952, "Dec": 120.5714286, "sum": 2060.619048 }, "geometry": { "type": "Point", "coordinates": [ 80.70000001699195, 6.930000005448695 ] } },
{ "type": "Feature", "properties": { "station_na": "tissapura", "longitude": 81.08, "latitude": 7.3, "Jan": 327.6666667, "Feb": 170.4285714, "March": 124.8571429, "April": 197.1428571, "May": 88.33333333, "June": 12.28571429, "July": 26.14285714, "August": 60.85714286, "Sep": 96.23809524000001, "Oct": 232.5238095, "Nov": 364.6666667, "Dec": 454.5714286, "sum": 2155.714286 }, "geometry": { "type": "Point", "coordinates": [ 81.080000016140986, 7.30000000501833 ] } },
{ "type": "Feature", "properties": { "station_na": "trincomalee", "longitude": 81.25, "latitude": 8.58, "Jan": 160.3809524, "Feb": 105.952381, "March": 67.57142857, "April": 56.61904762, "May": 80.38095238, "June": 21.71428571, "July": 50.19047619, "August": 64.57142857, "Sep": 99.42857143000001, "Oct": 242.7619048, "Nov": 381.5714286, "Dec": 354.6666667, "sum": 1685.809524 }, "geometry": { "type": "Point", "coordinates": [ 81.25000001570838, 8.58000000372258 ] } },
{ "type": "Feature", "properties": { "station_na": "udaradella", "longitude": 80.82, "latitude": 6.97, "Jan": 85.47619048, "Feb": 77.80952381, "March": 85.23809524000001, "April": 166.952381, "May": 238.8095238, "June": 276.5714286, "July": 266.1904762, "August": 257.5238095, "Sep": 259.2857143, "Oct": 302.047619, "Nov": 239.3809524, "Dec": 176.8571429, "sum": 2432.142857 }, "geometry": { "type": "Point", "coordinates": [ 80.820000016727121, 6.970000005389505 ] } },
{ "type": "Feature", "properties": { "station_na": "udaradella", "longitude": 80.82, "latitude": 6.97, "Jan": 85.47619048, "Feb": 77.80952381, "March": 88.42857143000001, "April": 166.952381, "May": 238.8095238, "June": 276.5714286, "July": 266.1904762, "August": 257.5238095, "Sep": 259.2857143, "Oct": 302.047619, "Nov": 239.3809524, "Dec": 168.2380952, "sum": 2426.714286 }, "geometry": { "type": "Point", "coordinates": [ 80.820000016727121, 6.970000005389505 ] } },
{ "type": "Feature", "properties": { "station_na": "ukuwela", "longitude": 80.65, "latitude": 7.4, "Jan": 109.6666667, "Feb": 80.0, "March": 96.0952381, "April": 222.9047619, "May": 142.0, "June": 101.5714286, "July": 100.3333333, "August": 108.3333333, "Sep": 135.0952381, "Oct": 298.0952381, "Nov": 290.3333333, "Dec": 253.952381, "sum": 1938.380952 }, "geometry": { "type": "Point", "coordinates": [ 80.650000017063931, 7.40000000498084 ] } },
{ "type": "Feature", "properties": { "station_na": "ukuwela", "longitude": 80.65, "latitude": 7.4, "Jan": 109.7142857, "Feb": 80.0, "March": 96.0952381, "April": 222.9047619, "May": 142.0, "June": 101.5714286, "July": 100.3333333, "August": 108.3333333, "Sep": 135.0952381, "Oct": 298.0952381, "Nov": 290.3333333, "Dec": 253.952381, "sum": 1938.428571 }, "geometry": { "type": "Point", "coordinates": [ 80.650000017063931, 7.40000000498084 ] } },
{ "type": "Feature", "properties": { "station_na": "ulhitiya", "longitude": 81.05, "latitude": 7.45, "Jan": 304.1428571, "Feb": 195.0, "March": 92.61904762, "April": 171.4761905, "May": 85.23809524000001, "June": 10.33333333, "July": 40.52380952, "August": 56.71428571, "Sep": 90.76190476, "Oct": 245.047619, "Nov": 397.1428571, "Dec": 481.5714286, "sum": 2170.571428 }, "geometry": { "type": "Point", "coordinates": [ 81.050000016194588, 7.450000004872249 ] } },
{ "type": "Feature", "properties": { "station_na": "vakaneri", "longitude": 81.43, "latitude": 7.92, "Jan": 200.952381, "Feb": 125.4285714, "March": 76.71428571, "April": 63.38095238, "May": 70.61904762, "June": 20.04761905, "July": 36.14285714, "August": 56.28571429, "Sep": 47.80952381, "Oct": 241.3333333, "Nov": 360.047619, "Dec": 410.5714286, "sum": 1709.333333 }, "geometry": { "type": "Point", "coordinates": [ 81.430000015360434, 7.920000004352906 ] } },
{ "type": "Feature", "properties": { "station_na": "vakarai kaddumurivu tank", "longitude": 81.32, "latitude": 8.13, "Jan": 176.7619048, "Feb": 113.2380952, "March": 61.85714286, "April": 71.0, "May": 91.33333333, "June": 9.333333333000001, "July": 33.33333333, "August": 47.33333333, "Sep": 48.76190476, "Oct": 219.4285714, "Nov": 311.7619048, "Dec": 366.7619048, "sum": 1550.904762 }, "geometry": { "type": "Point", "coordinates": [ 81.320000015580675, 8.130000004158919 ] } },
{ "type": "Feature", "properties": { "station_na": "victoria", "longitude": 80.78, "latitude": 7.25, "Jan": 165.1904762, "Feb": 101.5238095, "March": 72.61904762, "April": 143.7142857, "May": 83.66666667, "June": 18.71428571, "July": 21.19047619, "August": 39.23809524, "Sep": 57.9047619, "Oct": 201.5714286, "Nov": 268.6190476, "Dec": 285.8095238, "sum": 1459.761905 }, "geometry": { "type": "Point", "coordinates": [ 80.780000016791661, 7.250000005112708 ] } },
{ "type": "Feature", "properties": { "station_na": "wariyapola estate", "longitude": 80.63, "latitude": 7.47, "Jan": 118.2380952, "Feb": 60.80952381, "March": 78.95238095000001, "April": 209.0952381, "May": 121.9047619, "June": 86.9047619, "July": 82.33333333, "August": 74.47619048, "Sep": 109.0952381, "Oct": 250.1904762, "Nov": 266.8571429, "Dec": 208.9047619, "sum": 1667.761905 }, "geometry": { "type": "Point", "coordinates": [ 80.630000017102603, 7.470000004913206 ] } },
{ "type": "Feature", "properties": { "station_na": "wariyapola_est", "longitude": 80.63, "latitude": 7.47, "Jan": 118.2380952, "Feb": 60.80952381, "March": 78.95238095000001, "April": 209.0952381, "May": 121.9047619, "June": 86.9047619, "July": 82.33333333, "August": 74.47619048, "Sep": 109.0952381, "Oct": 250.1904762, "Nov": 266.8571429, "Dec": 208.9047619, "sum": 1667.761905 }, "geometry": { "type": "Point", "coordinates": [ 80.630000017102603, 7.470000004913206 ] } },
{ "type": "Feature", "properties": { "station_na": "watawala", "longitude": 80.52, "latitude": 6.97, "Jan": 86.23809524000001, "Feb": 102.7619048, "March": 189.4285714, "April": 353.3809524, "May": 579.7619048, "June": 629.0952381, "July": 589.8571429, "August": 541.5714286, "Sep": 480.4285714, "Oct": 582.5238095, "Nov": 348.6666667, "Dec": 229.2380952, "sum": 4712.952381 }, "geometry": { "type": "Point", "coordinates": [ 80.520000017383779, 6.97000000543655 ] } },
{ "type": "Feature", "properties": { "station_na": "welikanda singhapura", "longitude": 81.22, "latitude": 8.03, "Jan": 274.047619, "Feb": 166.4285714, "March": 71.52380952, "April": 116.5714286, "May": 99.71428571, "June": 17.04761905, "July": 57.23809524, "August": 69.61904762, "Sep": 72.38095238, "Oct": 266.6666667, "Nov": 421.1428571, "Dec": 544.3333333, "sum": 2176.714286 }, "geometry": { "type": "Point", "coordinates": [ 81.220000015797112, 8.030000004270846 ] } },
{ "type": "Feature", "properties": { "station_na": "welimada group", "longitude": 80.9, "latitude": 6.9, "Jan": 111.4761905, "Feb": 77.47619048, "March": 76.47619048, "April": 144.952381, "May": 129.6190476, "June": 40.28571429, "July": 44.04761905, "August": 66.47619048, "Sep": 134.5238095, "Oct": 221.3333333, "Nov": 232.0952381, "Dec": 182.3809524, "sum": 1461.142857 }, "geometry": { "type": "Point", "coordinates": [ 80.900000016559616, 6.90000000544801 ] } },
{ "type": "Feature", "properties": { "station_na": "welipitiya coconut", "longitude": 81.25, "latitude": 7.15, "Jan": 212.8571429, "Feb": 154.1428571, "March": 105.4761905, "April": 151.2857143, "May": 106.7619048, "June": 31.47619048, "July": 46.33333333, "August": 54.9047619, "Sep": 84.33333333, "Oct": 212.1428571, "Nov": 350.1904762, "Dec": 283.9047619, "sum": 1793.809524 }, "geometry": { "type": "Point", "coordinates": [ 81.250000015789865, 7.150000005144318 ] } },
{ "type": "Feature", "properties": { "station_na": "wellewala", "longitude": 80.82, "latitude": 7.67, "Jan": 291.2380952, "Feb": 156.7619048, "March": 113.5238095, "April": 115.8571429, "May": 90.95238095000001, "June": 12.9047619, "July": 26.57142857, "August": 45.66666667, "Sep": 82.23809524000001, "Oct": 233.047619, "Nov": 414.4285714, "Dec": 492.8571429, "sum": 2076.047619 }, "geometry": { "type": "Point", "coordinates": [ 80.820000016675181, 7.670000004684384 ] } },
{ "type": "Feature", "properties": { "station_na": "wellewala", "longitude": 80.82, "latitude": 7.67, "Jan": 350.2380952, "Feb": 192.4285714, "March": 123.952381, "April": 121.5714286, "May": 88.47619048, "June": 16.95238095, "July": 20.0952381, "August": 41.95238095, "Sep": 74.76190476, "Oct": 238.3809524, "Nov": 439.6666667, "Dec": 546.3809524, "sum": 2254.857143 }, "geometry": { "type": "Point", "coordinates": [ 80.820000016675181, 7.670000004684384 ] } },
{ "type": "Feature", "properties": { "station_na": "west_haputale", "longitude": 80.83, "latitude": 6.78, "Jan": 136.5714286, "Feb": 111.3809524, "March": 197.5714286, "April": 335.5238095, "May": 135.8571429, "June": 41.47619048, "July": 43.95238095, "August": 63.95238095, "Sep": 113.2857143, "Oct": 309.4285714, "Nov": 400.2857143, "Dec": 261.6190476, "sum": 2150.904762 }, "geometry": { "type": "Point", "coordinates": [ 80.830000016721712, 6.780000005580442 ] } },
{ "type": "Feature", "properties": { "station_na": "wewelmada", "longitude": 80.68, "latitude": 7.48, "Jan": 211.3688213, "Feb": 117.9085542, "March": 121.6176881, "April": 218.4874354, "May": 162.0146467, "June": 108.2775004, "July": 101.5190785, "August": 131.370685, "Sep": 164.3174912, "Oct": 344.8888861, "Nov": 343.299909, "Dec": 346.8415615, "sum": 2371.912257 }, "geometry": { "type": "Point", "coordinates": [ 80.68000001699258, 7.480000004895701 ] } },
{ "type": "Feature", "properties": { "station_na": "wewessa estate", "longitude": 81.11, "latitude": 6.97, "Jan": 174.9047619, "Feb": 100.1428571, "March": 105.7619048, "April": 180.0952381, "May": 142.1428571, "June": 58.71428571, "July": 61.23809524, "August": 90.23809524000001, "Sep": 107.9047619, "Oct": 263.3809524, "Nov": 292.4285714, "Dec": 272.6190476, "sum": 1849.571428 }, "geometry": { "type": "Point", "coordinates": [ 81.110000016102134, 6.970000005345596 ] } },
{ "type": "Feature", "properties": { "station_na": "woodside estate", "longitude": 80.83, "latitude": 7.27, "Jan": 164.2380952, "Feb": 80.23809524000001, "March": 71.0952381, "April": 164.6666667, "May": 121.7619048, "June": 46.95238095, "July": 43.71428571, "August": 69.0, "Sep": 103.0, "Oct": 227.1428571, "Nov": 292.3333333, "Dec": 267.8571429, "sum": 1652.0 }, "geometry": { "type": "Point", "coordinates": [ 80.830000016681595, 7.270000005085069 ] } }
]
}
