{
"type": "FeatureCollection",
"name": "Rainfall",
"crs": { "type": "name", "properties": { "name": "urn:ogc:def:crs:OGC:1.3:CRS84" } },
"features": [
{ "type": "Feature", "properties": { "station_na": "abergeldie", "longitude": 80.58, "latitude": 6.9, "Jan": 58.5, "Feb": 79.0, "March": 123.2, "April": 209.1, "May": 384.7, "June": 467.2, "July": 438.6, "August": 382.8, "Sep": 301.5, "Oct": 399.5, "Nov": 245.9, "Dec": 123.4, "sum": 3213.5 }, "geometry": { "type": "Point", "coordinates": [ 80.580000017257689, 6.900000005498161 ] } },
{ "type": "Feature", "properties": { "station_na": "aluthnuwara", "longitude": 81.0, "latitude": 7.32, "Jan": 333.1, "Feb": 169.4, "March": 105.7, "April": 138.9, "May": 88.5, "June": 21.3, "July": 29.1, "August": 56.5, "Sep": 85.7, "Oct": 274.1, "Nov": 459.6, "Dec": 415.0, "sum": 2176.9 }, "geometry": { "type": "Point", "coordinates": [ 81.000000016311034, 7.320000005009817 ] } },
{ "type": "Feature", "properties": { "station_na": "ambewela", "longitude": 80.8, "latitude": 6.88, "Jan": 125.6, "Feb": 98.6, "March": 111.0, "April": 172.8, "May": 184.3, "June": 174.1, "July": 152.5, "August": 146.1, "Sep": 157.9, "Oct": 263.7, "Nov": 269.2, "Dec": 219.8, "sum": 2075.6 }, "geometry": { "type": "Point", "coordinates": [ 80.800000016778199, 6.880000005483743 ] } },
{ "type": "Feature", "properties": { "station_na": "annfield", "longitude": 80.633, "latitude": 6.867, "Jan": 78.3, "Feb": 87.1, "March": 156.3, "April": 265.1, "May": 274.2, "June": 302.6, "July": 261.8, "August": 267.5, "Sep": 223.3, "Oct": 290.7, "Nov": 259.2, "Dec": 168.9, "sum": 2635.1 }, "geometry": { "type": "Point", "coordinates": [ 80.633000017144141, 6.867000005523265 ] } },
{ "type": "Feature", "properties": { "station_na": "badulla", "longitude": 81.05, "latitude": 6.98, "Jan": 184.0, "Feb": 112.6, "March": 103.7, "April": 194.2, "May": 121.8, "June": 52.6, "July": 52.2, "August": 73.4, "Sep": 100.1, "Oct": 255.9, "Nov": 287.6, "Dec": 279.5, "sum": 1817.5 }, "geometry": { "type": "Point", "coordinates": [ 81.050000016229845, 6.980000005344475 ] } },
{ "type": "Feature", "properties": { "station_na": "bandara eliya estate", "longitude": 81.02, "latitude": 6.78, "Jan": 147.0, "Feb": 120.9, "March": 198.3, "April": 356.7, "May": 181.7, "June": 40.3, "July": 58.6, "August": 66.9, "Sep": 166.1, "Oct": 402.5, "Nov": 397.1, "Dec": 272.4, "sum": 2408.4 }, "geometry": { "type": "Point", "coordinates": [ 81.020000016311045, 6.780000005550936 ] } },
{ "type": "Feature", "properties": { "station_na": "bandarawela irrigation", "longitude": 80.98, "latitude": 6.83, "Jan": 105.6, "Feb": 75.9, "March": 104.0, "April": 177.2, "May": 139.7, "June": 40.5, "July": 53.0, "August": 52.6, "Sep": 115.2, "Oct": 274.0, "Nov": 259.4, "Dec": 192.9, "sum": 1590.0 }, "geometry": { "type": "Point", "coordinates": [ 80.98000001639285, 6.830000005506507 ] } },
{ "type": "Feature", "properties": { "station_na": "beauvais estate", "longitude": 80.82, "latitude": 6.78, "Jan": 117.3, "Feb": 106.8, "March": 179.4, "April": 298.5, "May": 157.7, "June": 37.6, "July": 43.9, "August": 72.1, "Sep": 132.8, "Oct": 357.0, "Nov": 345.0, "Dec": 261.0, "sum": 2109.2 }, "geometry": { "type": "Point", "coordinates": [ 80.820000016743435, 6.780000005582012 ] } },
{ "type": "Feature", "properties": { "station_na": "bogahamaditta", "longitude": 80.9, "latitude": 6.97, "Jan": 144.5, "Feb": 85.0, "March": 81.2, "April": 149.1, "May": 116.1, "June": 46.5, "July": 49.4, "August": 72.4, "Sep": 85.3, "Oct": 213.2, "Nov": 240.0, "Dec": 230.5, "sum": 1513.3 }, "geometry": { "type": "Point", "coordinates": [ 80.900000016553761, 6.970000005377234 ] } },
{ "type": "Feature", "properties": { "station_na": "bopatthalawa", "longitude": 80.72, "latitude": 6.83, "Jan": 62.0, "Feb": 78.2, "March": 139.4, "April": 234.0, "May": 197.2, "June": 149.6, "July": 130.6, "August": 135.7, "Sep": 137.9, "Oct": 227.9, "Nov": 217.5, "Dec": 118.0, "sum": 1827.9 }, "geometry": { "type": "Point", "coordinates": [ 80.720000016956917, 6.830000005547031 ] } },
{ "type": "Feature", "properties": { "station_na": "campion", "longitude": 80.7, "latitude": 6.78, "Jan": 97.7, "Feb": 102.4, "March": 160.7, "April": 269.7, "May": 227.1, "June": 166.0, "July": 152.8, "August": 153.8, "Sep": 174.0, "Oct": 302.5, "Nov": 328.9, "Dec": 214.8, "sum": 2350.4 }, "geometry": { "type": "Point", "coordinates": [ 80.700000017005067, 6.780000005601021 ] } },
{ "type": "Feature", "properties": { "station_na": "canarawella group", "longitude": 81.12, "latitude": 6.9, "Jan": 173.4, "Feb": 128.6, "March": 177.0, "April": 342.6, "May": 222.9, "June": 98.3, "July": 100.6, "August": 109.9, "Sep": 185.6, "Oct": 431.6, "Nov": 443.2, "Dec": 329.9, "sum": 2743.3 }, "geometry": { "type": "Point", "coordinates": [ 81.120000016086465, 6.90000000541463 ] } },
{ "type": "Feature", "properties": { "station_na": "canyon", "longitude": 80.53, "latitude": 6.88, "Jan": 65.9, "Feb": 88.3, "March": 144.2, "April": 249.9, "May": 439.3, "June": 531.6, "July": 496.8, "August": 432.1, "Sep": 364.9, "Oct": 419.2, "Nov": 263.7, "Dec": 145.3, "sum": 3641.1 }, "geometry": { "type": "Point", "coordinates": [ 80.530000017369602, 6.880000005526508 ] } },
{ "type": "Feature", "properties": { "station_na": "crystal_hill", "longitude": 80.65, "latitude": 7.5, "Jan": 145.7, "Feb": 88.3, "March": 85.1, "April": 212.8, "May": 126.3, "June": 63.8, "July": 53.4, "August": 73.1, "Sep": 129.9, "Oct": 272.4, "Nov": 301.4, "Dec": 253.2, "sum": 1805.4 }, "geometry": { "type": "Point", "coordinates": [ 80.650000017056712, 7.500000004879976 ] } },
{ "type": "Feature", "properties": { "station_na": "dambatenne", "longitude": 81.0, "latitude": 6.78, "Jan": 182.0, "Feb": 145.0, "March": 243.6, "April": 413.7, "May": 226.0, "June": 53.4, "July": 64.0, "August": 93.1, "Sep": 180.0, "Oct": 495.8, "Nov": 516.8, "Dec": 337.7, "sum": 2951.1 }, "geometry": { "type": "Point", "coordinates": [ 81.000000016354079, 6.780000005554003 ] } },
{ "type": "Feature", "properties": { "station_na": "debedda estate", "longitude": 81.12, "latitude": 6.95, "Jan": 194.6, "Feb": 113.5, "March": 122.7, "April": 226.0, "May": 145.7, "June": 69.9, "July": 77.6, "August": 97.2, "Sep": 133.3, "Oct": 289.5, "Nov": 323.7, "Dec": 284.3, "sum": 2078.0 }, "geometry": { "type": "Point", "coordinates": [ 81.120000016082358, 6.950000005364255 ] } },
{ "type": "Feature", "properties": { "station_na": "delta estate", "longitude": 80.669, "latitude": 7.119, "Jan": 130.6, "Feb": 101.9, "March": 133.9, "April": 335.4, "May": 284.5, "June": 228.2, "July": 221.5, "August": 202.1, "Sep": 245.0, "Oct": 406.5, "Nov": 347.5, "Dec": 282.5, "sum": 2919.6 }, "geometry": { "type": "Point", "coordinates": [ 80.669000017044013, 7.119000005261978 ] } },
{ "type": "Feature", "properties": { "station_na": "delta_estate-east division", "longitude": 80.67, "latitude": 7.12, "Jan": 130.6, "Feb": 101.9, "March": 139.2, "April": 335.4, "May": 284.5, "June": 228.2, "July": 221.5, "August": 202.1, "Sep": 245.0, "Oct": 408.8, "Nov": 347.5, "Dec": 282.5, "sum": 2927.1 }, "geometry": { "type": "Point", "coordinates": [ 80.670000017041744, 7.12000000526082 ] } },
{ "type": "Feature", "properties": { "station_na": "dick_oya", "longitude": 80.58, "latitude": 6.88, "Jan": 85.2, "Feb": 97.3, "March": 162.2, "April": 304.7, "May": 317.0, "June": 395.3, "July": 372.6, "August": 363.3, "Sep": 276.5, "Oct": 328.8, "Nov": 290.3, "Dec": 162.1, "sum": 3155.4 }, "geometry": { "type": "Point", "coordinates": [ 80.580000017259437, 6.88000000551849 ] } },
{ "type": "Feature", "properties": { "station_na": "diyanillakelle_est", "longitude": 80.669, "latitude": 6.904, "Jan": 109.1, "Feb": 99.4, "March": 148.2, "April": 226.0, "May": 259.4, "June": 297.0, "July": 296.6, "August": 227.0, "Sep": 205.7, "Oct": 238.1, "Nov": 197.7, "Dec": 125.7, "sum": 2430.1 }, "geometry": { "type": "Point", "coordinates": [ 80.669000017061975, 6.904000005479955 ] } },
{ "type": "Feature", "properties": { "station_na": "diyatalawa-survey-camp", "longitude": 80.9667, "latitude": 6.8167, "Jan": 101.9, "Feb": 79.8, "March": 109.0, "April": 200.7, "May": 154.1, "June": 40.3, "July": 54.3, "August": 59.8, "Sep": 126.3, "Oct": 293.7, "Nov": 258.5, "Dec": 195.0, "sum": 1673.4 }, "geometry": { "type": "Point", "coordinates": [ 80.966700016422664, 6.816700005522012 ] } },
{ "type": "Feature", "properties": { "station_na": "duckwari estate", "longitude": 80.78, "latitude": 7.35, "Jan": 162.4, "Feb": 82.8, "March": 101.0, "April": 161.5, "May": 129.4, "June": 110.2, "July": 103.2, "August": 115.2, "Sep": 135.8, "Oct": 274.2, "Nov": 283.4, "Dec": 262.7, "sum": 1921.8 }, "geometry": { "type": "Point", "coordinates": [ 80.780000016784172, 7.350000005011888 ] } },
{ "type": "Feature", "properties": { "station_na": "duckwari estate", "longitude": 80.78, "latitude": 7.35, "Jan": 162.4, "Feb": 87.7, "March": 101.0, "April": 163.3, "May": 126.6, "June": 110.2, "July": 103.2, "August": 115.2, "Sep": 135.8, "Oct": 270.0, "Nov": 283.4, "Dec": 268.1, "sum": 1926.9 }, "geometry": { "type": "Point", "coordinates": [ 80.780000016784172, 7.350000005011888 ] } },
{ "type": "Feature", "properties": { "station_na": "dyrabba estate", "longitude": 80.93, "latitude": 6.88, "Jan": 115.0, "Feb": 84.8, "March": 86.9, "April": 162.4, "May": 127.2, "June": 43.5, "July": 40.5, "August": 51.4, "Sep": 102.9, "Oct": 243.7, "Nov": 219.3, "Dec": 189.5, "sum": 1467.0 }, "geometry": { "type": "Point", "coordinates": [ 80.930000016496464, 6.880000005463635 ] } },
{ "type": "Feature", "properties": { "station_na": "edingburg_est", "longitude": 80.746, "latitude": 6.931, "Jan": 89.3, "Feb": 84.2, "March": 113.4, "April": 202.0, "May": 244.1, "June": 306.4, "July": 298.6, "August": 259.3, "Sep": 244.6, "Oct": 270.3, "Nov": 209.6, "Dec": 138.3, "sum": 2460.2 }, "geometry": { "type": "Point", "coordinates": [ 80.746000016891429, 6.931000005440476 ] } },
{ "type": "Feature", "properties": { "station_na": "elkaduwa", "longitude": 80.68, "latitude": 7.42, "Jan": 171.2, "Feb": 110.0, "March": 103.4, "April": 228.4, "May": 199.8, "June": 147.1, "July": 124.5, "August": 132.6, "Sep": 171.3, "Oct": 339.4, "Nov": 338.3, "Dec": 312.9, "sum": 2378.9 }, "geometry": { "type": "Point", "coordinates": [ 80.680000016996871, 7.420000004956183 ] } },
{ "type": "Feature", "properties": { "station_na": "elkaduwa estate", "longitude": 80.683, "latitude": 7.417, "Jan": 165.3, "Feb": 102.8, "March": 106.1, "April": 229.2, "May": 203.1, "June": 150.7, "July": 123.0, "August": 133.6, "Sep": 180.4, "Oct": 346.0, "Nov": 338.8, "Dec": 310.1, "sum": 2389.3 }, "geometry": { "type": "Point", "coordinates": [ 80.683000016990562, 7.417000004958761 ] } },
{ "type": "Feature", "properties": { "station_na": "ettampitiya", "longitude": 80.9864, "latitude": 6.9364, "Jan": 211.1, "Feb": 118.9, "March": 174.2, "April": 270.8, "May": 235.2, "June": 82.7, "July": 84.0, "August": 92.3, "Sep": 167.5, "Oct": 338.1, "Nov": 402.0, "Dec": 323.8, "sum": 2500.6 }, "geometry": { "type": "Point", "coordinates": [ 80.986400016370112, 6.936400005398034 ] } },
{ "type": "Feature", "properties": { "station_na": "galphele", "longitude": 80.7, "latitude": 7.35, "Jan": 124.7, "Feb": 75.0, "March": 89.1, "April": 168.8, "May": 141.6, "June": 117.6, "July": 122.4, "August": 109.7, "Sep": 153.5, "Oct": 298.4, "Nov": 271.4, "Dec": 265.0, "sum": 1937.2 }, "geometry": { "type": "Point", "coordinates": [ 80.70000001695837, 7.350000005023806 ] } },
{ "type": "Feature", "properties": { "station_na": "galphele", "longitude": 80.7, "latitude": 7.35, "Jan": 124.7, "Feb": 75.1, "March": 90.2, "April": 168.8, "May": 141.6, "June": 118.8, "July": 122.4, "August": 109.7, "Sep": 153.5, "Oct": 298.4, "Nov": 272.2, "Dec": 265.0, "sum": 1940.4 }, "geometry": { "type": "Point", "coordinates": [ 80.70000001695837, 7.350000005023806 ] } },
{ "type": "Feature", "properties": { "station_na": "gannoruwa", "longitude": 80.583, "latitude": 7.283, "Jan": 79.9, "Feb": 64.1, "March": 126.9, "April": 251.6, "May": 173.5, "June": 146.4, "July": 122.2, "August": 122.2, "Sep": 152.5, "Oct": 311.2, "Nov": 264.1, "Dec": 196.0, "sum": 2010.5 }, "geometry": { "type": "Point", "coordinates": [ 80.583000017219589, 7.28300000510921 ] } },
{ "type": "Feature", "properties": { "station_na": "gannoruwa", "longitude": 80.583, "latitude": 7.283, "Jan": 79.9, "Feb": 64.1, "March": 126.9, "April": 251.6, "May": 173.5, "June": 146.4, "July": 122.2, "August": 122.2, "Sep": 152.5, "Oct": 311.2, "Nov": 264.1, "Dec": 196.0, "sum": 2010.5 }, "geometry": { "type": "Point", "coordinates": [ 80.583000017219589, 7.28300000510921 ] } },
{ "type": "Feature", "properties": { "station_na": "giddawa", "longitude": 80.73, "latitude": 7.42, "Jan": 152.9, "Feb": 79.2, "March": 97.8, "April": 158.6, "May": 129.6, "June": 103.8, "July": 100.6, "August": 99.2, "Sep": 136.8, "Oct": 284.4, "Nov": 282.1, "Dec": 270.7, "sum": 1895.6 }, "geometry": { "type": "Point", "coordinates": [ 80.730000016887828, 7.420000004948769 ] } },
{ "type": "Feature", "properties": { "station_na": "glen alpin estate", "longitude": 81.08, "latitude": 6.95, "Jan": 194.9, "Feb": 122.8, "March": 116.9, "April": 203.5, "May": 157.3, "June": 60.5, "July": 68.8, "August": 94.8, "Sep": 118.0, "Oct": 278.2, "Nov": 311.2, "Dec": 297.1, "sum": 2024.0 }, "geometry": { "type": "Point", "coordinates": [ 81.080000016167958, 6.950000005370226 ] } },
{ "type": "Feature", "properties": { "station_na": "glenanore", "longitude": 80.92, "latitude": 6.77, "Jan": 114.5, "Feb": 111.1, "March": 174.6, "April": 258.3, "May": 149.5, "June": 34.3, "July": 50.5, "August": 77.8, "Sep": 131.9, "Oct": 362.4, "Nov": 380.8, "Dec": 238.9, "sum": 2084.6 }, "geometry": { "type": "Point", "coordinates": [ 80.920000016527581, 6.770000005576509 ] } },
{ "type": "Feature", "properties": { "station_na": "gonamotava", "longitude": 80.98, "latitude": 6.78, "Jan": 121.1, "Feb": 91.5, "March": 130.0, "April": 228.6, "May": 143.3, "June": 35.9, "July": 49.4, "August": 59.8, "Sep": 126.8, "Oct": 332.5, "Nov": 299.7, "Dec": 225.8, "sum": 1844.4 }, "geometry": { "type": "Point", "coordinates": [ 80.980000016397156, 6.780000005557085 ] } },
{ "type": "Feature", "properties": { "station_na": "goonapitiya", "longitude": 80.8, "latitude": 7.05, "Jan": 311.8, "Feb": 163.8, "March": 159.7, "April": 216.1, "May": 157.2, "June": 58.1, "July": 75.9, "August": 86.3, "Sep": 117.1, "Oct": 294.1, "Nov": 407.0, "Dec": 440.4, "sum": 2487.7 }, "geometry": { "type": "Point", "coordinates": [ 80.800000016763974, 7.05000000531166 ] } },
{ "type": "Feature", "properties": { "station_na": "hakgala", "longitude": 80.817, "latitude": 6.917, "Jan": 154.4, "Feb": 98.2, "March": 100.4, "April": 179.9, "May": 165.3, "June": 84.7, "July": 83.0, "August": 93.7, "Sep": 137.6, "Oct": 246.6, "Nov": 271.3, "Dec": 259.5, "sum": 1874.5 }, "geometry": { "type": "Point", "coordinates": [ 80.817000016738092, 6.917000005443619 ] } },
{ "type": "Feature", "properties": { "station_na": "hakgala botanical gdns", "longitude": 80.82, "latitude": 6.92, "Jan": 154.4, "Feb": 98.2, "March": 100.4, "April": 179.9, "May": 165.3, "June": 84.7, "July": 83.0, "August": 93.7, "Sep": 137.6, "Oct": 246.6, "Nov": 271.3, "Dec": 259.5, "sum": 1874.5 }, "geometry": { "type": "Point", "coordinates": [ 80.820000016731342, 6.920000005440114 ] } },
{ "type": "Feature", "properties": { "station_na": "handdeessa_daulgala", "longitude": 80.567, "latitude": 7.233, "Jan": 62.7, "Feb": 55.8, "March": 133.0, "April": 265.6, "May": 196.5, "June": 155.5, "July": 122.1, "August": 129.4, "Sep": 175.0, "Oct": 312.8, "Nov": 267.5, "Dec": 165.0, "sum": 2041.0 }, "geometry": { "type": "Point", "coordinates": [ 80.567000017258607, 7.233000005162277 ] } },
{ "type": "Feature", "properties": { "station_na": "handessa-daulagala", "longitude": 80.57, "latitude": 7.23, "Jan": 62.7, "Feb": 55.8, "March": 133.0, "April": 263.8, "May": 196.3, "June": 155.5, "July": 122.1, "August": 127.8, "Sep": 175.0, "Oct": 329.0, "Nov": 269.3, "Dec": 165.0, "sum": 2055.4 }, "geometry": { "type": "Point", "coordinates": [ 80.570000017252269, 7.230000005164852 ] } },
{ "type": "Feature", "properties": { "station_na": "haputale factory", "longitude": 80.95, "latitude": 6.77, "Jan": 129.9, "Feb": 105.9, "March": 243.6, "April": 331.0, "May": 197.7, "June": 47.7, "July": 59.0, "August": 74.0, "Sep": 152.1, "Oct": 366.5, "Nov": 376.0, "Dec": 255.4, "sum": 2338.6 }, "geometry": { "type": "Point", "coordinates": [ 80.950000016462738, 6.770000005571849 ] } },
{ "type": "Feature", "properties": { "station_na": "hatton_kotagala_rosita", "longitude": 80.6, "latitude": 6.92, "Jan": 120.0, "Feb": 114.8, "March": 173.6, "April": 249.0, "May": 298.2, "June": 334.6, "July": 334.6, "August": 261.2, "Sep": 235.4, "Oct": 258.0, "Nov": 209.1, "Dec": 140.0, "sum": 2728.5 }, "geometry": { "type": "Point", "coordinates": [ 80.600000017211968, 6.920000005474636 ] } },
{ "type": "Feature", "properties": { "station_na": "helboda_est", "longitude": 80.667, "latitude": 7.083, "Jan": 99.0, "Feb": 69.8, "March": 149.7, "April": 269.4, "May": 292.2, "June": 324.2, "July": 312.4, "August": 254.0, "Sep": 276.0, "Oct": 402.3, "Nov": 361.0, "Dec": 240.2, "sum": 3050.4 }, "geometry": { "type": "Point", "coordinates": [ 80.667000017051322, 7.083000005298744 ] } },
{ "type": "Feature", "properties": { "station_na": "helboda_north", "longitude": 80.683, "latitude": 7.083, "Jan": 146.3, "Feb": 73.0, "March": 132.3, "April": 331.0, "May": 370.7, "June": 403.3, "July": 384.5, "August": 345.1, "Sep": 371.3, "Oct": 459.3, "Nov": 371.1, "Dec": 318.0, "sum": 3706.0 }, "geometry": { "type": "Point", "coordinates": [ 80.68300001701634, 7.083000005296271 ] } },
{ "type": "Feature", "properties": { "station_na": "helbodde estate", "longitude": 80.67, "latitude": 7.08, "Jan": 99.0, "Feb": 69.8, "March": 150.0, "April": 269.4, "May": 292.2, "June": 324.2, "July": 312.4, "August": 255.3, "Sep": 276.0, "Oct": 402.3, "Nov": 361.0, "Dec": 254.2, "sum": 3065.9 }, "geometry": { "type": "Point", "coordinates": [ 80.670000017045012, 7.080000005301316 ] } },
{ "type": "Feature", "properties": { "station_na": "helbodde north", "longitude": 80.68, "latitude": 7.08, "Jan": 146.3, "Feb": 73.0, "March": 132.3, "April": 331.0, "May": 370.7, "June": 403.3, "July": 384.5, "August": 345.1, "Sep": 371.3, "Oct": 459.3, "Nov": 371.1, "Dec": 318.0, "sum": 3706.0 }, "geometry": { "type": "Point", "coordinates": [ 80.680000017023119, 7.080000005299776 ] } },
{ "type": "Feature", "properties": { "station_na": "high forest estate", "longitude": 80.84, "latitude": 7.06, "Jan": 333.0, "Feb": 167.9, "March": 161.0, "April": 247.9, "May": 186.5, "June": 68.9, "July": 77.9, "August": 112.3, "Sep": 126.4, "Oct": 301.2, "Nov": 380.8, "Dec": 481.6, "sum": 2645.3 }, "geometry": { "type": "Point", "coordinates": [ 80.840000016676342, 7.06000000529545 ] } },
{ "type": "Feature", "properties": { "station_na": "holly_rood_est", "longitude": 80.67, "latitude": 6.95, "Jan": 78.6, "Feb": 71.9, "March": 109.2, "April": 216.4, "May": 280.8, "June": 313.3, "July": 290.0, "August": 280.1, "Sep": 249.6, "Oct": 301.8, "Nov": 246.3, "Dec": 158.8, "sum": 2596.8 }, "geometry": { "type": "Point", "coordinates": [ 80.670000017055855, 6.95000000543311 ] } },
{ "type": "Feature", "properties": { "station_na": "holmwood_est", "longitude": 80.72, "latitude": 6.85, "Jan": 61.3, "Feb": 61.8, "March": 122.8, "April": 240.9, "May": 187.9, "June": 152.6, "July": 125.5, "August": 141.1, "Sep": 159.8, "Oct": 215.3, "Nov": 207.2, "Dec": 110.0, "sum": 1786.0 }, "geometry": { "type": "Point", "coordinates": [ 80.720000016955154, 6.850000005526725 ] } },
{ "type": "Feature", "properties": { "station_na": "hope estate", "longitude": 80.75, "latitude": 7.1, "Jan": 331.3, "Feb": 189.0, "March": 127.5, "April": 277.8, "May": 198.0, "June": 140.6, "July": 163.8, "August": 126.4, "Sep": 169.3, "Oct": 362.8, "Nov": 384.6, "Dec": 465.5, "sum": 2936.6 }, "geometry": { "type": "Point", "coordinates": [ 80.750000016868725, 7.100000005268755 ] } },
{ "type": "Feature", "properties": { "station_na": "hope_est", "longitude": 80.75, "latitude": 7.1, "Jan": 331.3, "Feb": 189.0, "March": 127.5, "April": 277.8, "May": 198.0, "June": 140.6, "July": 163.8, "August": 126.4, "Sep": 169.3, "Oct": 362.8, "Nov": 384.6, "Dec": 458.8, "sum": 2929.9 }, "geometry": { "type": "Point", "coordinates": [ 80.750000016868725, 7.100000005268755 ] } },
{ "type": "Feature", "properties": { "station_na": "illukkumbura", "longitude": 80.77, "latitude": 7.55, "Jan": 418.2, "Feb": 263.5, "March": 130.7, "April": 196.4, "May": 104.3, "June": 29.3, "July": 29.7, "August": 41.6, "Sep": 108.6, "Oct": 329.7, "Nov": 548.7, "Dec": 650.1, "sum": 2850.7 }, "geometry": { "type": "Point", "coordinates": [ 80.77000001679167, 7.550000004812071 ] } },
{ "type": "Feature", "properties": { "station_na": "kahagalle estate", "longitude": 80.9722, "latitude": 6.7944, "Jan": 128.9, "Feb": 96.5, "March": 131.4, "April": 238.8, "May": 158.8, "June": 33.6, "July": 58.0, "August": 65.9, "Sep": 137.4, "Oct": 334.5, "Nov": 319.7, "Dec": 229.7, "sum": 1933.0 }, "geometry": { "type": "Point", "coordinates": [ 80.972200016412714, 6.794400005543718 ] } },
{ "type": "Feature", "properties": { "station_na": "kandaketiya", "longitude": 81.02, "latitude": 7.17, "Jan": 333.3, "Feb": 197.3, "March": 90.0, "April": 102.6, "May": 85.0, "June": 17.3, "July": 30.1, "August": 48.0, "Sep": 58.6, "Oct": 195.0, "Nov": 343.3, "Dec": 426.2, "sum": 1927.0 }, "geometry": { "type": "Point", "coordinates": [ 81.020000016279283, 7.17000000515764 ] } },
{ "type": "Feature", "properties": { "station_na": "kandaketiya", "longitude": 81.02, "latitude": 7.17, "Jan": 333.3, "Feb": 197.3, "March": 90.0, "April": 102.6, "May": 85.0, "June": 17.3, "July": 30.1, "August": 48.0, "Sep": 58.6, "Oct": 195.0, "Nov": 343.3, "Dec": 426.2, "sum": 1927.0 }, "geometry": { "type": "Point", "coordinates": [ 81.020000016279283, 7.17000000515764 ] } },
{ "type": "Feature", "properties": { "station_na": "kandy_kings_pavillion", "longitude": 80.63, "latitude": 7.3, "Jan": 89.6, "Feb": 72.0, "March": 118.3, "April": 205.7, "May": 147.8, "June": 124.1, "July": 100.1, "August": 102.5, "Sep": 125.9, "Oct": 272.0, "Nov": 258.8, "Dec": 199.4, "sum": 1816.2 }, "geometry": { "type": "Point", "coordinates": [ 80.630000017115179, 7.300000005084845 ] } },
{ "type": "Feature", "properties": { "station_na": "katugastota", "longitude": 80.63, "latitude": 7.33, "Jan": 101.8, "Feb": 74.7, "March": 122.4, "April": 199.9, "May": 139.4, "June": 117.4, "July": 102.9, "August": 99.6, "Sep": 117.0, "Oct": 298.6, "Nov": 268.1, "Dec": 212.0, "sum": 1853.8 }, "geometry": { "type": "Point", "coordinates": [ 80.630000017112906, 7.330000005054538 ] } },
{ "type": "Feature", "properties": { "station_na": "katugastota", "longitude": 80.63, "latitude": 7.33, "Jan": 101.8, "Feb": 74.7, "March": 122.4, "April": 199.9, "May": 139.4, "June": 117.4, "July": 102.9, "August": 99.6, "Sep": 117.9, "Oct": 298.6, "Nov": 268.1, "Dec": 212.0, "sum": 1854.6 }, "geometry": { "type": "Point", "coordinates": [ 80.630000017112906, 7.330000005054538 ] } },
{ "type": "Feature", "properties": { "station_na": "kenilworth", "longitude": 80.48, "latitude": 6.08, "Jan": 100.5, "Feb": 140.3, "March": 200.4, "April": 437.8, "May": 716.2, "June": 755.5, "July": 647.2, "August": 569.2, "Sep": 585.0, "Oct": 676.6, "Nov": 422.0, "Dec": 200.1, "sum": 5450.9 }, "geometry": { "type": "Point", "coordinates": [ 80.480000017559846, 6.080000006354618 ] } },
{ "type": "Feature", "properties": { "station_na": "kirklees estate", "longitude": 80.93, "latitude": 6.98, "Jan": 408.2, "Feb": 247.4, "March": 190.4, "April": 267.3, "May": 177.8, "June": 47.5, "July": 46.8, "August": 65.2, "Sep": 146.4, "Oct": 369.5, "Nov": 490.9, "Dec": 640.8, "sum": 3098.2 }, "geometry": { "type": "Point", "coordinates": [ 80.930000016488123, 6.980000005362583 ] } },
{ "type": "Feature", "properties": { "station_na": "kobonella estate", "longitude": 80.85, "latitude": 7.35, "Jan": 425.6, "Feb": 265.1, "March": 120.5, "April": 151.5, "May": 85.4, "June": 39.1, "July": 37.3, "August": 52.7, "Sep": 69.0, "Oct": 215.2, "Nov": 472.5, "Dec": 504.7, "sum": 2438.7 }, "geometry": { "type": "Point", "coordinates": [ 80.850000016632336, 7.350000005001548 ] } },
{ "type": "Feature", "properties": { "station_na": "kobonella estate", "longitude": 80.85, "latitude": 7.35, "Jan": 425.6, "Feb": 265.1, "March": 120.5, "April": 151.5, "May": 85.4, "June": 39.1, "July": 37.3, "August": 52.7, "Sep": 69.0, "Oct": 215.2, "Nov": 472.5, "Dec": 504.7, "sum": 2438.7 }, "geometry": { "type": "Point", "coordinates": [ 80.850000016632336, 7.350000005001548 ] } },
{ "type": "Feature", "properties": { "station_na": "kotmale_dam", "longitude": 80.58, "latitude": 7.02, "Jan": 71.6, "Feb": 71.4, "March": 121.2, "April": 240.4, "May": 257.4, "June": 261.2, "July": 239.3, "August": 222.8, "Sep": 214.4, "Oct": 330.1, "Nov": 245.8, "Dec": 161.3, "sum": 2437.0 }, "geometry": { "type": "Point", "coordinates": [ 80.580000017247386, 7.020000005376218 ] } },
{ "type": "Feature", "properties": { "station_na": "kotmale_ps", "longitude": 80.57, "latitude": 7.12, "Jan": 70.4, "Feb": 71.6, "March": 116.5, "April": 234.6, "May": 232.4, "June": 260.4, "July": 234.0, "August": 217.3, "Sep": 214.0, "Oct": 326.3, "Nov": 247.1, "Dec": 137.7, "sum": 2362.3 }, "geometry": { "type": "Point", "coordinates": [ 80.57000001726108, 7.120000005276323 ] } },
{ "type": "Feature", "properties": { "station_na": "kundasale farm", "longitude": 80.68, "latitude": 7.27, "Jan": 81.6, "Feb": 52.7, "March": 84.5, "April": 165.0, "May": 91.7, "June": 66.8, "July": 49.4, "August": 66.0, "Sep": 68.6, "Oct": 199.7, "Nov": 225.6, "Dec": 191.9, "sum": 1343.2 }, "geometry": { "type": "Point", "coordinates": [ 80.680000017008084, 7.270000005107587 ] } },
{ "type": "Feature", "properties": { "station_na": "kurundu oya", "longitude": 80.83, "latitude": 7.07, "Jan": 427.2, "Feb": 202.5, "March": 152.7, "April": 233.6, "May": 154.4, "June": 43.7, "July": 69.0, "August": 78.9, "Sep": 120.9, "Oct": 328.2, "Nov": 421.6, "Dec": 548.1, "sum": 2780.7 }, "geometry": { "type": "Point", "coordinates": [ 80.830000016697213, 7.070000005286864 ] } },
{ "type": "Feature", "properties": { "station_na": "labukelle", "longitude": 80.72, "latitude": 7.02, "Jan": 143.9, "Feb": 94.5, "March": 104.4, "April": 209.8, "May": 263.6, "June": 317.5, "July": 298.6, "August": 275.1, "Sep": 283.5, "Oct": 364.2, "Nov": 310.1, "Dec": 271.5, "sum": 2936.7 }, "geometry": { "type": "Point", "coordinates": [ 80.720000016940688, 7.020000005354338 ] } },
{ "type": "Feature", "properties": { "station_na": "labukelle", "longitude": 80.72, "latitude": 7.02, "Jan": 143.9, "Feb": 94.5, "March": 104.4, "April": 209.8, "May": 263.6, "June": 317.5, "July": 298.6, "August": 275.1, "Sep": 283.5, "Oct": 364.2, "Nov": 310.1, "Dec": 271.5, "sum": 2936.7 }, "geometry": { "type": "Point", "coordinates": [ 80.720000016940688, 7.020000005354338 ] } },
{ "type": "Feature", "properties": { "station_na": "ledgerwatte estate", "longitude": 81.02, "latitude": 7.03, "Jan": 387.5, "Feb": 198.6, "March": 151.9, "April": 237.7, "May": 120.7, "June": 27.9, "July": 33.2, "August": 56.2, "Sep": 97.9, "Oct": 256.3, "Nov": 429.4, "Dec": 539.0, "sum": 2536.2 }, "geometry": { "type": "Point", "coordinates": [ 81.02000001629024, 7.030000005298577 ] } },
{ "type": "Feature", "properties": { "station_na": "ledgerwatte estate", "longitude": 81.02, "latitude": 7.03, "Jan": 390.6, "Feb": 200.2, "March": 151.3, "April": 237.7, "May": 120.7, "June": 27.9, "July": 34.6, "August": 55.6, "Sep": 97.9, "Oct": 256.3, "Nov": 429.4, "Dec": 555.8, "sum": 2557.9 }, "geometry": { "type": "Point", "coordinates": [ 81.02000001629024, 7.030000005298577 ] } },
{ "type": "Feature", "properties": { "station_na": "liddesdale estate", "longitude": 80.85, "latitude": 7.03, "Jan": 285.2, "Feb": 162.2, "March": 134.5, "April": 206.8, "May": 141.2, "June": 36.7, "July": 43.5, "August": 65.3, "Sep": 96.6, "Oct": 270.0, "Nov": 343.6, "Dec": 413.5, "sum": 2199.0 }, "geometry": { "type": "Point", "coordinates": [ 80.850000016657077, 7.030000005324232 ] } },
{ "type": "Feature", "properties": { "station_na": "loolecondera estate", "longitude": 80.7, "latitude": 7.12, "Jan": 216.2, "Feb": 132.4, "March": 126.9, "April": 261.3, "May": 188.9, "June": 123.0, "July": 140.0, "August": 124.7, "Sep": 150.6, "Oct": 329.4, "Nov": 348.1, "Dec": 354.5, "sum": 2495.9 }, "geometry": { "type": "Point", "coordinates": [ 80.700000016976176, 7.1200000052562 ] } },
{ "type": "Feature", "properties": { "station_na": "loolecondera_est", "longitude": 80.711, "latitude": 7.128, "Jan": 216.2, "Feb": 132.4, "March": 126.9, "April": 261.3, "May": 188.9, "June": 123.0, "July": 140.0, "August": 124.7, "Sep": 150.6, "Oct": 329.4, "Nov": 348.1, "Dec": 354.5, "sum": 2495.9 }, "geometry": { "type": "Point", "coordinates": [ 80.711000016951516, 7.12800000524641 ] } },
{ "type": "Feature", "properties": { "station_na": "lower spring valley", "longitude": 81.1, "latitude": 6.92, "Jan": 215.0, "Feb": 132.6, "March": 153.9, "April": 273.5, "May": 191.1, "June": 84.5, "July": 72.9, "August": 121.8, "Sep": 141.1, "Oct": 338.4, "Nov": 379.3, "Dec": 351.2, "sum": 2455.3 }, "geometry": { "type": "Point", "coordinates": [ 81.100000016127609, 6.920000005397454 ] } },
{ "type": "Feature", "properties": { "station_na": "madulkelle", "longitude": 80.73, "latitude": 7.37, "Jan": 133.0, "Feb": 80.8, "March": 95.4, "April": 158.8, "May": 157.8, "June": 123.8, "July": 117.3, "August": 121.3, "Sep": 149.4, "Oct": 299.0, "Nov": 267.2, "Dec": 259.8, "sum": 1963.8 }, "geometry": { "type": "Point", "coordinates": [ 80.730000016891466, 7.37000000499916 ] } },
{ "type": "Feature", "properties": { "station_na": "mahaberiyatenna", "longitude": 80.77, "latitude": 7.27, "Jan": 106.7, "Feb": 78.1, "March": 79.0, "April": 153.6, "May": 90.0, "June": 36.5, "July": 30.0, "August": 55.0, "Sep": 72.6, "Oct": 214.2, "Nov": 262.6, "Dec": 234.8, "sum": 1413.0 }, "geometry": { "type": "Point", "coordinates": [ 80.770000016811892, 7.270000005094033 ] } },
{ "type": "Feature", "properties": { "station_na": "mapakadawewa", "longitude": 81.03, "latitude": 7.27, "Jan": 346.2, "Feb": 211.1, "March": 113.9, "April": 155.0, "May": 94.8, "June": 13.3, "July": 31.6, "August": 61.2, "Sep": 96.8, "Oct": 273.4, "Nov": 445.2, "Dec": 490.8, "sum": 2333.5 }, "geometry": { "type": "Point", "coordinates": [ 81.030000016250298, 7.270000005055671 ] } },
{ "type": "Feature", "properties": { "station_na": "marigold factory", "longitude": 80.82, "latitude": 7.07, "Jan": 262.1, "Feb": 149.6, "March": 126.8, "April": 184.4, "May": 113.9, "June": 28.0, "July": 46.7, "August": 52.3, "Sep": 106.6, "Oct": 222.6, "Nov": 301.2, "Dec": 363.9, "sum": 1958.1 }, "geometry": { "type": "Point", "coordinates": [ 80.820000016718922, 7.070000005288389 ] } },
{ "type": "Feature", "properties": { "station_na": "mickfield farm", "longitude": 80.88, "latitude": 6.85, "Jan": 110.5, "Feb": 78.7, "March": 87.3, "April": 168.3, "May": 134.8, "June": 36.6, "July": 42.1, "August": 42.5, "Sep": 103.3, "Oct": 238.0, "Nov": 239.5, "Dec": 182.7, "sum": 1464.2 }, "geometry": { "type": "Point", "coordinates": [ 80.880000016607141, 6.850000005501697 ] } },
{ "type": "Feature", "properties": { "station_na": "minipe lb", "longitude": 80.97, "latitude": 7.2, "Jan": 291.2, "Feb": 189.2, "March": 70.0, "April": 77.0, "May": 58.3, "June": 11.7, "July": 14.9, "August": 24.8, "Sep": 34.2, "Oct": 149.9, "Nov": 318.0, "Dec": 392.0, "sum": 1631.0 }, "geometry": { "type": "Point", "coordinates": [ 80.970000016384489, 7.200000005134812 ] } },
{ "type": "Feature", "properties": { "station_na": "minipe lb", "longitude": 80.97, "latitude": 7.2, "Jan": 294.8, "Feb": 194.8, "March": 68.0, "April": 76.7, "May": 59.5, "June": 11.7, "July": 14.0, "August": 27.8, "Sep": 34.4, "Oct": 149.9, "Nov": 318.0, "Dec": 392.0, "sum": 1641.4 }, "geometry": { "type": "Point", "coordinates": [ 80.970000016384489, 7.200000005134812 ] } },
{ "type": "Feature", "properties": { "station_na": "nagrak_est", "longitude": 80.78, "latitude": 6.77, "Jan": 184.0, "Feb": 128.0, "March": 210.9, "April": 356.5, "May": 158.2, "June": 54.4, "July": 52.7, "August": 80.7, "Sep": 119.3, "Oct": 337.6, "Nov": 425.5, "Dec": 307.5, "sum": 2415.3 }, "geometry": { "type": "Point", "coordinates": [ 80.780000016831352, 6.770000005598474 ] } },
{ "type": "Feature", "properties": { "station_na": "nawalapitiya", "longitude": 80.53, "latitude": 7.07, "Jan": 50.8, "Feb": 95.7, "March": 131.2, "April": 295.8, "May": 386.3, "June": 405.6, "July": 318.2, "August": 321.3, "Sep": 348.0, "Oct": 435.3, "Nov": 279.4, "Dec": 170.2, "sum": 3237.9 }, "geometry": { "type": "Point", "coordinates": [ 80.530000017353274, 7.070000005333334 ] } },
{ "type": "Feature", "properties": { "station_na": "new forest (levalon)", "longitude": 80.683, "latitude": 7.15, "Jan": 185.7, "Feb": 119.0, "March": 128.8, "April": 245.4, "May": 189.1, "June": 145.9, "July": 154.1, "August": 147.7, "Sep": 180.6, "Oct": 356.7, "Nov": 339.0, "Dec": 300.2, "sum": 2492.1 }, "geometry": { "type": "Point", "coordinates": [ 80.683000017010912, 7.150000005228457 ] } },
{ "type": "Feature", "properties": { "station_na": "new_forest", "longitude": 80.68, "latitude": 7.15, "Jan": 185.7, "Feb": 123.5, "March": 130.0, "April": 253.0, "May": 193.0, "June": 145.9, "July": 152.5, "August": 147.7, "Sep": 180.6, "Oct": 356.7, "Nov": 339.0, "Dec": 299.5, "sum": 2507.0 }, "geometry": { "type": "Point", "coordinates": [ 80.680000017017477, 7.150000005228907 ] } },
{ "type": "Feature", "properties": { "station_na": "newburgh-southerland", "longitude": 81.09, "latitude": 6.87, "Jan": 135.5, "Feb": 103.3, "March": 102.5, "April": 178.1, "May": 140.2, "June": 50.1, "July": 55.0, "August": 91.1, "Sep": 127.6, "Oct": 249.3, "Nov": 287.7, "Dec": 249.8, "sum": 1770.3 }, "geometry": { "type": "Point", "coordinates": [ 81.090000016153155, 6.870000005449383 ] } },
{ "type": "Feature", "properties": { "station_na": "nilloomally estate", "longitude": 80.7167, "latitude": 7.4333, "Jan": 205.4, "Feb": 111.5, "March": 127.7, "April": 214.0, "May": 171.7, "June": 139.6, "July": 130.5, "August": 145.7, "Sep": 171.8, "Oct": 357.7, "Nov": 358.5, "Dec": 344.9, "sum": 2478.9 }, "geometry": { "type": "Point", "coordinates": [ 80.716700016915865, 7.433300004937334 ] } },
{ "type": "Feature", "properties": { "station_na": "pallekelle", "longitude": 80.72, "latitude": 7.28, "Jan": 80.9, "Feb": 56.6, "March": 81.0, "April": 162.4, "May": 94.2, "June": 53.5, "July": 35.1, "August": 64.3, "Sep": 63.8, "Oct": 208.7, "Nov": 238.9, "Dec": 201.1, "sum": 1340.6 }, "geometry": { "type": "Point", "coordinates": [ 80.720000016920025, 7.280000005091442 ] } },
{ "type": "Feature", "properties": { "station_na": "panviladeniya", "longitude": 80.62, "latitude": 7.15, "Jan": 82.7, "Feb": 81.9, "March": 122.7, "April": 271.6, "May": 189.7, "June": 151.1, "July": 152.5, "August": 138.5, "Sep": 172.0, "Oct": 312.5, "Nov": 290.9, "Dec": 175.1, "sum": 2141.2 }, "geometry": { "type": "Point", "coordinates": [ 80.620000017148854, 7.150000005238156 ] } },
{ "type": "Feature", "properties": { "station_na": "peradeniya", "longitude": 80.6, "latitude": 7.267, "Jan": 69.3, "Feb": 58.9, "March": 120.0, "April": 208.3, "May": 169.1, "June": 136.1, "July": 112.6, "August": 113.5, "Sep": 140.3, "Oct": 303.0, "Nov": 260.0, "Dec": 177.8, "sum": 1868.9 }, "geometry": { "type": "Point", "coordinates": [ 80.60000001718349, 7.267000005122791 ] } },
{ "type": "Feature", "properties": { "station_na": "pitarat malai estate", "longitude": 80.9917, "latitude": 6.7833, "Jan": 135.0, "Feb": 113.7, "March": 192.1, "April": 369.8, "May": 176.0, "June": 49.5, "July": 60.8, "August": 70.5, "Sep": 205.7, "Oct": 416.8, "Nov": 414.7, "Dec": 259.6, "sum": 2464.1 }, "geometry": { "type": "Point", "coordinates": [ 80.991700016371666, 6.783300005551947 ] } },
{ "type": "Feature", "properties": { "station_na": "polgolla", "longitude": 80.62, "latitude": 7.32, "Jan": 92.3, "Feb": 61.8, "March": 116.6, "April": 185.9, "May": 135.2, "June": 104.5, "July": 82.9, "August": 85.9, "Sep": 97.6, "Oct": 261.3, "Nov": 237.1, "Dec": 215.7, "sum": 1676.7 }, "geometry": { "type": "Point", "coordinates": [ 80.620000017135581, 7.32000000506616 ] } },
{ "type": "Feature", "properties": { "station_na": "randenigala", "longitude": 80.92, "latitude": 7.2, "Jan": 275.2, "Feb": 163.4, "March": 91.0, "April": 102.6, "May": 49.0, "June": 9.1, "July": 15.3, "August": 29.5, "Sep": 48.7, "Oct": 186.0, "Nov": 341.3, "Dec": 379.4, "sum": 1690.6 }, "geometry": { "type": "Point", "coordinates": [ 80.920000016492253, 7.200000005142215 ] } },
{ "type": "Feature", "properties": { "station_na": "rantembe", "longitude": 80.93, "latitude": 7.2, "Jan": 314.7, "Feb": 180.3, "March": 109.5, "April": 97.6, "May": 60.5, "June": 12.5, "July": 16.4, "August": 34.9, "Sep": 62.6, "Oct": 214.4, "Nov": 362.6, "Dec": 446.7, "sum": 1912.6 }, "geometry": { "type": "Point", "coordinates": [ 80.930000016470686, 7.20000000514073 ] } },
{ "type": "Feature", "properties": { "station_na": "sandringham", "longitude": 80.75, "latitude": 6.85, "Jan": 65.4, "Feb": 69.9, "March": 110.7, "April": 206.4, "May": 180.7, "June": 153.5, "July": 142.0, "August": 134.7, "Sep": 144.1, "Oct": 212.3, "Nov": 193.1, "Dec": 115.7, "sum": 1728.5 }, "geometry": { "type": "Point", "coordinates": [ 80.7500000168897, 6.850000005522002 ] } },
{ "type": "Feature", "properties": { "station_na": "shannon_est", "longitude": 80.57, "latitude": 6.9, "Jan": 86.3, "Feb": 94.9, "March": 153.5, "April": 288.0, "May": 353.6, "June": 566.6, "July": 517.0, "August": 470.2, "Sep": 379.4, "Oct": 414.9, "Nov": 307.8, "Dec": 177.0, "sum": 3809.0 }, "geometry": { "type": "Point", "coordinates": [ 80.570000017279682, 6.900000005499753 ] } },
{ "type": "Feature", "properties": { "station_na": "sita eliya", "longitude": 80.8, "latitude": 6.93, "Jan": 144.7, "Feb": 91.8, "March": 101.5, "April": 157.8, "May": 173.0, "June": 127.5, "July": 119.0, "August": 120.5, "Sep": 157.4, "Oct": 258.4, "Nov": 252.9, "Dec": 223.2, "sum": 1927.6 }, "geometry": { "type": "Point", "coordinates": [ 80.800000016773936, 6.930000005433088 ] } },
{ "type": "Feature", "properties": { "station_na": "sitaeliya", "longitude": 80.8, "latitude": 6.93, "Jan": 144.7, "Feb": 91.8, "March": 101.5, "April": 157.8, "May": 173.0, "June": 127.5, "July": 119.0, "August": 120.5, "Sep": 157.4, "Oct": 258.4, "Nov": 252.9, "Dec": 223.2, "sum": 1927.6 }, "geometry": { "type": "Point", "coordinates": [ 80.800000016773936, 6.930000005433088 ] } },
{ "type": "Feature", "properties": { "station_na": "sitaeliya govt farm", "longitude": 80.78, "latitude": 6.95, "Jan": 132.1, "Feb": 79.2, "March": 94.1, "April": 135.4, "May": 163.2, "June": 121.0, "July": 122.3, "August": 115.2, "Sep": 152.0, "Oct": 251.5, "Nov": 236.2, "Dec": 200.0, "sum": 1802.4 }, "geometry": { "type": "Point", "coordinates": [ 80.780000016815762, 6.950000005415931 ] } },
{ "type": "Feature", "properties": { "station_na": "sitaeliya_govt_farm", "longitude": 80.793, "latitude": 6.957, "Jan": 132.1, "Feb": 79.2, "March": 94.1, "April": 135.4, "May": 163.2, "June": 121.0, "July": 122.3, "August": 115.2, "Sep": 152.0, "Oct": 251.5, "Nov": 236.2, "Dec": 200.0, "sum": 1802.4 }, "geometry": { "type": "Point", "coordinates": [ 80.793000016786891, 6.957000005406832 ] } },
{ "type": "Feature", "properties": { "station_na": "sogama", "longitude": 80.62, "latitude": 7.12, "Jan": 121.7, "Feb": 114.1, "March": 155.3, "April": 273.8, "May": 217.1, "June": 222.6, "July": 214.1, "August": 185.0, "Sep": 185.0, "Oct": 220.5, "Nov": 236.4, "Dec": 162.8, "sum": 2308.6 }, "geometry": { "type": "Point", "coordinates": [ 80.620000017151284, 7.120000005268549 ] } },
{ "type": "Feature", "properties": { "station_na": "st.catherine division", "longitude": 81.0167, "latitude": 6.7986, "Jan": 147.7, "Feb": 102.8, "March": 171.6, "April": 298.2, "May": 140.3, "June": 38.4, "July": 45.1, "August": 57.3, "Sep": 136.0, "Oct": 385.3, "Nov": 374.7, "Dec": 264.5, "sum": 2161.8 }, "geometry": { "type": "Point", "coordinates": [ 81.016700016316534, 6.798600005532624 ] } },
{ "type": "Feature", "properties": { "station_na": "summerset_est", "longitude": 80.7, "latitude": 6.93, "Jan": 64.9, "Feb": 58.9, "March": 95.9, "April": 175.2, "May": 209.4, "June": 238.2, "July": 254.4, "August": 215.4, "Sep": 180.7, "Oct": 246.8, "Nov": 200.2, "Dec": 120.6, "sum": 2060.6 }, "geometry": { "type": "Point", "coordinates": [ 80.70000001699195, 6.930000005448695 ] } },
{ "type": "Feature", "properties": { "station_na": "udaradella", "longitude": 80.82, "latitude": 6.97, "Jan": 85.5, "Feb": 77.8, "March": 85.2, "April": 167.0, "May": 238.8, "June": 276.6, "July": 266.2, "August": 257.5, "Sep": 259.3, "Oct": 302.0, "Nov": 239.4, "Dec": 176.9, "sum": 2432.1 }, "geometry": { "type": "Point", "coordinates": [ 80.820000016727121, 6.970000005389505 ] } },
{ "type": "Feature", "properties": { "station_na": "udaradella", "longitude": 80.82, "latitude": 6.97, "Jan": 85.5, "Feb": 77.8, "March": 88.4, "April": 167.0, "May": 238.8, "June": 276.6, "July": 266.2, "August": 257.5, "Sep": 259.3, "Oct": 302.0, "Nov": 239.4, "Dec": 168.2, "sum": 2426.7 }, "geometry": { "type": "Point", "coordinates": [ 80.820000016727121, 6.970000005389505 ] } },
{ "type": "Feature", "properties": { "station_na": "ukuwela", "longitude": 80.65, "latitude": 7.4, "Jan": 109.7, "Feb": 80.0, "March": 96.1, "April": 222.9, "May": 142.0, "June": 101.6, "July": 100.3, "August": 108.3, "Sep": 135.1, "Oct": 298.1, "Nov": 290.3, "Dec": 254.0, "sum": 1938.4 }, "geometry": { "type": "Point", "coordinates": [ 80.650000017063931, 7.40000000498084 ] } },
{ "type": "Feature", "properties": { "station_na": "ukuwela", "longitude": 80.65, "latitude": 7.4, "Jan": 109.7, "Feb": 80.0, "March": 96.1, "April": 222.9, "May": 142.0, "June": 101.6, "July": 100.3, "August": 108.3, "Sep": 135.1, "Oct": 298.1, "Nov": 290.3, "Dec": 254.0, "sum": 1938.4 }, "geometry": { "type": "Point", "coordinates": [ 80.650000017063931, 7.40000000498084 ] } },
{ "type": "Feature", "properties": { "station_na": "victoria", "longitude": 80.78, "latitude": 7.25, "Jan": 165.2, "Feb": 101.5, "March": 72.6, "April": 143.7, "May": 83.7, "June": 18.7, "July": 21.2, "August": 39.2, "Sep": 57.9, "Oct": 201.6, "Nov": 268.6, "Dec": 285.8, "sum": 1459.8 }, "geometry": { "type": "Point", "coordinates": [ 80.780000016791661, 7.250000005112708 ] } },
{ "type": "Feature", "properties": { "station_na": "wariyapola estate", "longitude": 80.63, "latitude": 7.47, "Jan": 118.2, "Feb": 60.8, "March": 79.0, "April": 209.1, "May": 121.9, "June": 86.9, "July": 82.3, "August": 74.5, "Sep": 109.1, "Oct": 250.2, "Nov": 266.9, "Dec": 208.9, "sum": 1667.8 }, "geometry": { "type": "Point", "coordinates": [ 80.630000017102603, 7.470000004913206 ] } },
{ "type": "Feature", "properties": { "station_na": "wariyapola_est", "longitude": 80.63, "latitude": 7.47, "Jan": 118.2, "Feb": 60.8, "March": 79.0, "April": 209.1, "May": 121.9, "June": 86.9, "July": 82.3, "August": 74.5, "Sep": 109.1, "Oct": 250.2, "Nov": 266.9, "Dec": 208.9, "sum": 1667.8 }, "geometry": { "type": "Point", "coordinates": [ 80.630000017102603, 7.470000004913206 ] } },
{ "type": "Feature", "properties": { "station_na": "watawala", "longitude": 80.52, "latitude": 6.97, "Jan": 86.2, "Feb": 102.8, "March": 189.4, "April": 353.4, "May": 579.8, "June": 629.1, "July": 589.9, "August": 541.6, "Sep": 480.4, "Oct": 582.5, "Nov": 348.7, "Dec": 229.2, "sum": 4713.0 }, "geometry": { "type": "Point", "coordinates": [ 80.520000017383779, 6.97000000543655 ] } },
{ "type": "Feature", "properties": { "station_na": "welimada group", "longitude": 80.9, "latitude": 6.9, "Jan": 111.5, "Feb": 77.5, "March": 76.5, "April": 145.0, "May": 129.6, "June": 40.3, "July": 44.0, "August": 66.5, "Sep": 134.5, "Oct": 221.3, "Nov": 232.1, "Dec": 182.4, "sum": 1461.1 }, "geometry": { "type": "Point", "coordinates": [ 80.900000016559616, 6.90000000544801 ] } },
{ "type": "Feature", "properties": { "station_na": "west_haputale", "longitude": 80.83, "latitude": 6.78, "Jan": 136.6, "Feb": 111.4, "March": 197.6, "April": 335.5, "May": 135.9, "June": 41.5, "July": 44.0, "August": 64.0, "Sep": 113.3, "Oct": 309.4, "Nov": 400.3, "Dec": 261.6, "sum": 2150.9 }, "geometry": { "type": "Point", "coordinates": [ 80.830000016721712, 6.780000005580442 ] } },
{ "type": "Feature", "properties": { "station_na": "wewelmada", "longitude": 80.68, "latitude": 7.48, "Jan": 211.4, "Feb": 117.9, "March": 121.6, "April": 218.5, "May": 162.0, "June": 108.3, "July": 101.5, "August": 131.4, "Sep": 164.3, "Oct": 344.9, "Nov": 343.3, "Dec": 346.8, "sum": 2371.9 }, "geometry": { "type": "Point", "coordinates": [ 80.68000001699258, 7.480000004895701 ] } },
{ "type": "Feature", "properties": { "station_na": "wewessa estate", "longitude": 81.11, "latitude": 6.97, "Jan": 174.9, "Feb": 100.1, "March": 105.8, "April": 180.1, "May": 142.1, "June": 58.7, "July": 61.2, "August": 90.2, "Sep": 107.9, "Oct": 263.4, "Nov": 292.4, "Dec": 272.6, "sum": 1849.6 }, "geometry": { "type": "Point", "coordinates": [ 81.110000016102134, 6.970000005345596 ] } },
{ "type": "Feature", "properties": { "station_na": "woodside estate", "longitude": 80.83, "latitude": 7.27, "Jan": 164.2, "Feb": 80.2, "March": 71.1, "April": 164.7, "May": 121.8, "June": 47.0, "July": 43.7, "August": 69.0, "Sep": 103.0, "Oct": 227.1, "Nov": 292.3, "Dec": 267.9, "sum": 1652.0 }, "geometry": { "type": "Point", "coordinates": [ 80.830000016681595, 7.270000005085069 ] } }
]
}
